[{"coordinates":{"lon":24.939767810095155,"lat":60.192579317338485},"name":"Alppilan lukio","type":"lukio","districts":{"ruotsiAla":"Åshöjdens grundskola 2020-2021","ruotsiYla":"Åshöjdens grundskola 2020-2021","suomiAla":"Pasilan peruskoulu 2020-2021","suomiYla":"Pasilan peruskoulu 2020-2021"}},{"coordinates":{"lon":24.740409468110407,"lat":60.380009668720156},"name":"Arkadian yhteislyseon lukio","type":"lukio","districts":{}},{"coordinates":{"lon":25.00202190975778,"lat":60.186023473279725},"name":"Brändö gymnasium","type":"lukio","districts":{"ruotsiAla":"Brändö lågstadieskola 2020-2021","ruotsiYla":"Botby grundskola 2020-2021","suomiAla":"Kulosaaren ala-asteen koulu 2020-2021","suomiYla":"Kulosaaren yhteiskoulu 2020-2021"}},{"coordinates":{"lon":24.751442837232933,"lat":60.21010624617524},"name":"Espoon yhteislyseon lukio","type":"lukio","districts":{"ruotsiAla":"Smedsby","ruotsiYla":"Smedsby","suomiAla":"Läntisen Leppävaaran oppilasalue","suomiYla":"Läntisen Leppävaaran oppilasalue"}},{"coordinates":{"lon":24.825373844960723,"lat":60.180943325094844},"name":"Haukilahden lukio","type":"lukio","districts":{"ruotsiAla":"Vindängen","ruotsiYla":"Vindängen","suomiAla":"Tapiolan oppilasalue","suomiYla":"Tapiolan oppilasalue"}},{"coordinates":{"lon":24.844007272677594,"lat":60.27652168295627},"name":"Martinlaakson lukio","type":"lukio","districts":{"ruotsiAla":"Mårtensdals skola","ruotsiYla":"Koko Vantaa","suomiAla":"Läntinen oppilaaksiottoalue","suomiYla":"Läntinen oppilaaksiottoalue"}},{"coordinates":{"lon":24.72298471952291,"lat":60.21391426202677},"name":"Gymnasiet Grankulla samskola","type":"lukio","districts":{"ruotsiAla":"Kauniainen","ruotsiYla":"Kauniainen","suomiAla":"Kauniainen","suomiYla":"Kauniainen"}},{"coordinates":{"lon":25.12177147904712,"lat":60.279447445489346},"name":"Sotungin lukio ja etälukio","type":"lukio","districts":{"ruotsiAla":"Västersundom skola","ruotsiYla":"Koko Vantaa","suomiAla":"Itäinen oppilaaksiottoalue","suomiYla":"Itäinen oppilaaksiottoalue"}},{"coordinates":{"lon":24.94361018839406,"lat":60.21016269363431},"name":"Helsingin luonnontiedelukio","type":"lukio","districts":{"ruotsiAla":"Kottby lågstadieskola 2020-2021","ruotsiYla":"Åshöjdens grundskola 2020-2021","suomiAla":"Yhtenäiskoulu 2020-2021","suomiYla":"Yhtenäiskoulu 2020-2021"}},{"coordinates":{"lon":24.938625682646045,"lat":60.16735819967265},"name":"Ressun lukio","type":"lukio","districts":{"ruotsiAla":"Grundskolan Norsen, Grundskolan Norsen, Cygnaeus-enheten 1-4 2020-2021","ruotsiYla":"Grundskolan Norsen, 5-9 2020-2021","suomiAla":"Ressun peruskoulu 2020-2021","suomiYla":"Ressun peruskoulu 2020-2021"}},{"coordinates":{"lon":24.944117603225738,"lat":60.16283578924532},"name":"Helsingin normaalilyseo","type":"suomiAla","districts":{"ruotsiAla":"Grundskolan Norsen, Grundskolan Norsen, Cygnaeus-enheten 1-4 2020-2021","ruotsiYla":"Grundskolan Norsen, 5-9 2020-2021","suomiAla":"Helsingin normaalilyseo 2020-2021","suomiYla":"Helsingin normaalilyseo 2020-2021"}},{"coordinates":{"lon":24.944117603225738,"lat":60.16283578924532},"name":"Helsingin normaalilyseo","type":"suomiYla","districts":{"ruotsiAla":"Grundskolan Norsen, Grundskolan Norsen, Cygnaeus-enheten 1-4 2020-2021","ruotsiYla":"Grundskolan Norsen, 5-9 2020-2021","suomiAla":"Helsingin normaalilyseo 2020-2021","suomiYla":"Helsingin normaalilyseo 2020-2021"}},{"coordinates":{"lon":24.87074479404533,"lat":60.207683342150226},"name":"H:gin ransk.-suom. koulu","type":"suomiAla","districts":{"ruotsiAla":"Västra distrikt, Hoplaxskolan, Kårböle-enheten 1-5 2020-2021","ruotsiYla":"Hoplaxskolan, Munksnäs-enheten 6-9 2020-2021","suomiAla":"Munkkivuoren ala-asteen koulu 2020-2021","suomiYla":"Munkkiniemen yhteiskoulu 2020-2021"}},{"coordinates":{"lon":24.87074479404533,"lat":60.207683342150226},"name":"H:gin ransk.-suom. koulu","type":"suomiYla","districts":{"ruotsiAla":"Västra distrikt, Hoplaxskolan, Kårböle-enheten 1-5 2020-2021","ruotsiYla":"Hoplaxskolan, Munksnäs-enheten 6-9 2020-2021","suomiAla":"Munkkivuoren ala-asteen koulu 2020-2021","suomiYla":"Munkkiniemen yhteiskoulu 2020-2021"}},{"coordinates":{"lon":24.877902527725908,"lat":60.23572337547965},"name":"Suomalais-venäläinen koulu","type":"suomiAla","districts":{"ruotsiAla":"Västra distrikt, Hoplaxskolan, Kårböle-enheten 1-5 2020-2021","ruotsiYla":"Hoplaxskolan, Munksnäs-enheten 6-9 2020-2021","suomiAla":"Kannelmäen peruskoulu 2020-2021","suomiYla":"Kannelmäen peruskoulu 2020-2021"}},{"coordinates":{"lon":24.877902527725908,"lat":60.23572337547965},"name":"Suomalais-venäläinen koulu","type":"suomiYla","districts":{"ruotsiAla":"Västra distrikt, Hoplaxskolan, Kårböle-enheten 1-5 2020-2021","ruotsiYla":"Hoplaxskolan, Munksnäs-enheten 6-9 2020-2021","suomiAla":"Kannelmäen peruskoulu 2020-2021","suomiYla":"Kannelmäen peruskoulu 2020-2021"}},{"coordinates":{"lon":24.958474967841898,"lat":60.18588981566614},"name":"Helsingin kuvataidelukio","type":"lukio","districts":{"ruotsiAla":"Åshöjdens grundskola 2020-2021","ruotsiYla":"Åshöjdens grundskola 2020-2021","suomiAla":"Kallion ala-asteen koulu 2020-2021","suomiYla":"Aleksis Kiven peruskoulu 2020-2021"}},{"coordinates":{"lon":24.956584807202354,"lat":60.17451654568959},"name":"Sibelius-lukio","type":"lukio","districts":{"ruotsiAla":"Grundskolan Norsen, Grundskolan Norsen, Cygnaeus-enheten 1-4 2020-2021","ruotsiYla":"Grundskolan Norsen, 5-9 2020-2021","suomiAla":"Kaisaniemen ala-asteen koulu 2020-2021","suomiYla":"Kruununhaan yläasteen koulu 2020-2021"}},{"coordinates":{"lon":24.66481913824727,"lat":60.14486705983123},"name":"Espoonlahden lukio","type":"lukio","districts":{"ruotsiAla":"Storängen","ruotsiYla":"Storängen","suomiAla":"Espoonlahden oppilasalue","suomiYla":"Espoonlahden oppilasalue"}},{"coordinates":{"lon":24.981155376650594,"lat":60.28229722997602},"name":"Helsinge gymnasium","type":"lukio","districts":{"ruotsiAla":"Dickursby skola","ruotsiYla":"Koko Vantaa","suomiAla":"Läntinen oppilaaksiottoalue","suomiYla":"Läntinen oppilaaksiottoalue"}},{"coordinates":{"lon":24.751533237673907,"lat":60.16422515263305},"name":"Mattlidens gymnasium","type":"lukio","districts":{"ruotsiAla":"Mattliden","ruotsiYla":"Mattliden","suomiAla":"Matinkylän-Olarin oppilasalue","suomiYla":"Matinkylän-Olarin oppilasalue"}},{"coordinates":{"lon":24.906022802121836,"lat":60.196442765084576},"name":"Kallion lukio","type":"lukio","districts":{"ruotsiAla":"Zacharias Topeliusskolan 2020-2021","ruotsiYla":"Hoplaxskolan, Munksnäs-enheten 6-9 2020-2021","suomiAla":"Meilahden ala-asteen koulu 2020-2021","suomiYla":"Meilahden yläasteen koulu 2020-2021"}},{"coordinates":{"lon":24.703004502047822,"lat":60.21541110331665},"name":"Kauniaisten lukio","type":"lukio","districts":{"ruotsiAla":"Kauniainen","ruotsiYla":"Kauniainen","suomiAla":"Kauniainen","suomiYla":"Kauniainen"}},{"coordinates":{"lon":24.942817082943446,"lat":60.155674937370165},"name":"Eiran aikuislukio","type":"lukio","districts":{"ruotsiAla":"Grundskolan Norsen, Grundskolan Norsen, Cygnaeus-enheten 1-4 2020-2021","ruotsiYla":"Grundskolan Norsen, 5-9 2020-2021","suomiAla":"Tehtaankadun ala-asteen koulu 2020-2021","suomiYla":"Helsingin normaalilyseo 2020-2021"}},{"coordinates":{"lon":25.02145701248188,"lat":60.38999057417729},"name":"Tuusulan lukio","type":"lukio","districts":{}},{"coordinates":{"lon":24.85133685182329,"lat":60.26624819942403},"name":"Vaskivuoren lukio","type":"lukio","districts":{"ruotsiAla":"Mårtensdals skola","ruotsiYla":"Koko Vantaa","suomiAla":"Läntinen oppilaaksiottoalue","suomiYla":"Läntinen oppilaaksiottoalue"}},{"coordinates":{"lon":24.758626830975274,"lat":60.22385424828709},"name":"Leppävaaran lukio","type":"lukio","districts":{"ruotsiAla":"Karamalmen","ruotsiYla":"Karamalmen","suomiAla":"Läntisen Leppävaaran oppilasalue","suomiYla":"Läntisen Leppävaaran oppilasalue"}},{"coordinates":{"lon":24.794686206147404,"lat":60.17898104704381},"name":"Etelä-Tapiolan lukio","type":"lukio","districts":{"ruotsiAla":"Vindängen","ruotsiYla":"Vindängen","suomiAla":"Tapiolan oppilasalue","suomiYla":"Tapiolan oppilasalue"}},{"coordinates":{"lon":24.94912095112129,"lat":60.1987961206832},"name":"Mäkelänrinteen lukio","type":"lukio","districts":{"ruotsiAla":"Åshöjdens grundskola 2020-2021","ruotsiYla":"Åshöjdens grundskola 2020-2021","suomiAla":"Vallilan ala-asteen koulu 2020-2021","suomiYla":"Aleksis Kiven peruskoulu 2020-2021"}},{"coordinates":{"lon":24.923829632558842,"lat":60.18530673467679},"name":"Töölön yht.koulun aikuislukio","type":"lukio","districts":{"ruotsiAla":"Zacharias Topeliusskolan 2020-2021","ruotsiYla":"Hoplaxskolan, Munksnäs-enheten 6-9 2020-2021","suomiAla":"Töölön ala-asteen koulu 2020-2021","suomiYla":"Töölön yhteiskoulu 2020-2021"}},{"coordinates":{"lon":24.94912095112129,"lat":60.1987961206832},"name":"Helsingin aikuislukio","type":"lukio","districts":{"ruotsiAla":"Åshöjdens grundskola 2020-2021","ruotsiYla":"Åshöjdens grundskola 2020-2021","suomiAla":"Vallilan ala-asteen koulu 2020-2021","suomiYla":"Aleksis Kiven peruskoulu 2020-2021"}},{"coordinates":{"lon":24.891005054671435,"lat":60.21679158121337},"name":"Gymnasiet Lärkan","type":"lukio","districts":{"ruotsiAla":"Västra distrikt, Hoplaxskolan, Kårböle-enheten 1-5 2020-2021","ruotsiYla":"Hoplaxskolan, Munksnäs-enheten 6-9 2020-2021","suomiAla":"Haagan peruskoulu 2020-2021","suomiYla":"Haagan peruskoulu 2020-2021"}},{"coordinates":{"lon":24.819319993150316,"lat":60.18385291582541},"name":"Otaniemen lukio","type":"lukio","districts":{"ruotsiAla":"Vindängen","ruotsiYla":"Vindängen","suomiAla":"Tapiolan oppilasalue","suomiYla":"Tapiolan oppilasalue"}},{"coordinates":{"lon":24.659774058678956,"lat":60.20999316185403},"name":"Kuninkaantien lukio","type":"lukio","districts":{"ruotsiAla":"Lagstad","ruotsiYla":"Lagstad","suomiAla":"Keski- ja Pohjois-Espoon oppilasalue","suomiYla":"Keski- ja Pohjois-Espoon oppilasalue"}},{"coordinates":{"lon":24.921700185571286,"lat":60.179336258991874},"name":"Tölö gymnasium","type":"lukio","districts":{"ruotsiAla":"Zacharias Topeliusskolan 2020-2021","ruotsiYla":"Hoplaxskolan, Munksnäs-enheten 6-9 2020-2021","suomiAla":"Töölön ala-asteen koulu 2020-2021","suomiYla":"Töölön yhteiskoulu 2020-2021"}},{"coordinates":{"lon":25.07662854626267,"lat":60.35179324108253},"name":"Lumon lukio","type":"lukio","districts":{"ruotsiAla":"Dickursby skola","ruotsiYla":"Koko Vantaa","suomiAla":"Koillinen oppilaaksiottoalue","suomiYla":"Koillinen oppilaaksiottoalue"}},{"coordinates":{"lon":25.030071214515615,"lat":60.27017914856115},"name":"Helsingin medialukio","type":"lukio","districts":{"ruotsiAla":"Staffansby lågstadieskola 2020-2021","ruotsiYla":"Åshöjdens grundskola 2020-2021","suomiAla":"Tapanilan ala-asteen koulu 2020-2021","suomiYla":"Hiidenkiven peruskoulu 2020-2021"}},{"coordinates":{"lon":25.071003736950022,"lat":60.21310084439963},"name":"Helsingin  kielilukio","type":"lukio","districts":{"ruotsiAla":"Botby grundskola 2020-2021","ruotsiYla":"Botby grundskola 2020-2021","suomiAla":"Itäkeskuksen peruskoulu 2020-2021","suomiYla":"Itäkeskuksen peruskoulu 2020-2021"}},{"coordinates":{"lon":24.908131845096047,"lat":60.19675450431205},"name":"H:gin Rudolf Steiner -koulu","type":"suomiAla","districts":{"ruotsiAla":"Zacharias Topeliusskolan 2020-2021","ruotsiYla":"Hoplaxskolan, Munksnäs-enheten 6-9 2020-2021","suomiAla":"Meilahden ala-asteen koulu 2020-2021","suomiYla":"Meilahden yläasteen koulu 2020-2021"}},{"coordinates":{"lon":24.908131845096047,"lat":60.19675450431205},"name":"H:gin Rudolf Steiner -koulu","type":"suomiYla","districts":{"ruotsiAla":"Zacharias Topeliusskolan 2020-2021","ruotsiYla":"Hoplaxskolan, Munksnäs-enheten 6-9 2020-2021","suomiAla":"Meilahden ala-asteen koulu 2020-2021","suomiYla":"Meilahden yläasteen koulu 2020-2021"}},{"coordinates":{"lon":24.908131845096047,"lat":60.19675450431205},"name":"H:gin Rudolf Steiner -koulu","type":"ruotsiAla","districts":{"ruotsiAla":"Zacharias Topeliusskolan 2020-2021","ruotsiYla":"Hoplaxskolan, Munksnäs-enheten 6-9 2020-2021","suomiAla":"Meilahden ala-asteen koulu 2020-2021","suomiYla":"Meilahden yläasteen koulu 2020-2021"}},{"coordinates":{"lon":24.908131845096047,"lat":60.19675450431205},"name":"H:gin Rudolf Steiner -koulu","type":"ruotsiYla","districts":{"ruotsiAla":"Zacharias Topeliusskolan 2020-2021","ruotsiYla":"Hoplaxskolan, Munksnäs-enheten 6-9 2020-2021","suomiAla":"Meilahden ala-asteen koulu 2020-2021","suomiYla":"Meilahden yläasteen koulu 2020-2021"}},{"coordinates":{"lon":24.804608110197297,"lat":60.17919070818574},"name":"Tapiolan lukio","type":"lukio","districts":{"ruotsiAla":"Vindängen","ruotsiYla":"Vindängen","suomiAla":"Tapiolan oppilasalue","suomiYla":"Tapiolan oppilasalue"}},{"coordinates":{"lon":25.04989353524401,"lat":60.299248543197535},"name":"Tikkurilan lukio","type":"lukio","districts":{"ruotsiAla":"Dickursby skola","ruotsiYla":"Koko Vantaa","suomiAla":"Itäinen oppilaaksiottoalue","suomiYla":"Itäinen oppilaaksiottoalue"}},{"coordinates":{"lon":25.029706189340974,"lat":60.227834392441665},"name":"HY Viikin normaalikoulu","type":"suomiAla","districts":{"ruotsiAla":"Kottby lågstadieskola 2020-2021","ruotsiYla":"Åshöjdens grundskola 2020-2021","suomiAla":"Helsingin yliopiston Viikin normaalikoulu 2020-2021","suomiYla":"Helsingin yliopiston Viikin normaalikoulu 2020-2021"}},{"coordinates":{"lon":25.029706189340974,"lat":60.227834392441665},"name":"HY Viikin normaalikoulu","type":"suomiYla","districts":{"ruotsiAla":"Kottby lågstadieskola 2020-2021","ruotsiYla":"Åshöjdens grundskola 2020-2021","suomiAla":"Helsingin yliopiston Viikin normaalikoulu 2020-2021","suomiYla":"Helsingin yliopiston Viikin normaalikoulu 2020-2021"}},{"coordinates":{"lon":24.922193036183927,"lat":60.17125119967916},"name":"Etu-Töölön lukio","type":"lukio","districts":{"ruotsiAla":"Minervaskolan 2020-2021","ruotsiYla":"Grundskolan Norsen, 5-9 2020-2021","suomiAla":"Taivallahden peruskoulu 2020-2021","suomiYla":"Taivallahden peruskoulu 2020-2021"}},{"coordinates":{"lon":24.748941315137543,"lat":60.21026141659264},"name":"Viherlaakson lukio","type":"lukio","districts":{"ruotsiAla":"Smedsby","ruotsiYla":"Smedsby","suomiAla":"Läntisen Leppävaaran oppilasalue","suomiYla":"Läntisen Leppävaaran oppilasalue"}},{"coordinates":{"lon":25.14546780477979,"lat":60.209088528490334},"name":"Vuosaaren lukio","type":"lukio","districts":{"ruotsiAla":"Nordsjö lågstadieskola 2020-2021","ruotsiYla":"Botby grundskola 2020-2021","suomiAla":"Puistopolun peruskoulu 2020-2021","suomiYla":"Puistopolun peruskoulu 2020-2021"}},{"coordinates":{"lon":24.696510587731556,"lat":60.149446415408605},"name":"Kaitaan lukio","type":"lukio","districts":{"ruotsiAla":"Storängen","ruotsiYla":"Storängen","suomiAla":"Espoonlahden oppilasalue","suomiYla":"Espoonlahden oppilasalue"}},{"coordinates":{"lon":24.943203960176458,"lat":60.18753992375085},"name":"Aleksis Kiven peruskoulu","type":"suomiAla","districts":{"ruotsiAla":"Åshöjdens grundskola 2020-2021","ruotsiYla":"Åshöjdens grundskola 2020-2021","suomiAla":"Aleksis Kiven peruskoulu 2020-2021","suomiYla":"Aleksis Kiven peruskoulu 2020-2021"}},{"coordinates":{"lon":24.943203960176458,"lat":60.18753992375085},"name":"Aleksis Kiven peruskoulu","type":"suomiYla","districts":{"ruotsiAla":"Åshöjdens grundskola 2020-2021","ruotsiYla":"Åshöjdens grundskola 2020-2021","suomiAla":"Aleksis Kiven peruskoulu 2020-2021","suomiYla":"Aleksis Kiven peruskoulu 2020-2021"}},{"coordinates":{"lon":24.891172362874208,"lat":60.21446789114376},"name":"Haagan peruskoulu","type":"suomiAla","districts":{"ruotsiAla":"Västra distrikt, Hoplaxskolan, Kårböle-enheten 1-5 2020-2021","ruotsiYla":"Hoplaxskolan, Munksnäs-enheten 6-9 2020-2021","suomiAla":"Haagan peruskoulu 2020-2021","suomiYla":"Haagan peruskoulu 2020-2021"}},{"coordinates":{"lon":24.891172362874208,"lat":60.21446789114376},"name":"Haagan peruskoulu","type":"suomiYla","districts":{"ruotsiAla":"Västra distrikt, Hoplaxskolan, Kårböle-enheten 1-5 2020-2021","ruotsiYla":"Hoplaxskolan, Munksnäs-enheten 6-9 2020-2021","suomiAla":"Haagan peruskoulu 2020-2021","suomiYla":"Haagan peruskoulu 2020-2021"}},{"coordinates":{"lon":25.035642579506096,"lat":60.20407617337242},"name":"Hertsikan ala-aste","type":"suomiAla","districts":{"ruotsiAla":"Brändö lågstadieskola 2020-2021","ruotsiYla":"Botby grundskola 2020-2021","suomiAla":"Hertsikan ala-asteen koulu 2020-2021","suomiYla":"Herttoniemen yhteiskoulu 2020-2021"}},{"coordinates":{"lon":24.948198862685107,"lat":60.173398950064225},"name":"Kaisaniemen ala-asteen koulu","type":"suomiAla","districts":{"ruotsiAla":"Grundskolan Norsen, Grundskolan Norsen, Cygnaeus-enheten 1-4 2020-2021","ruotsiYla":"Grundskolan Norsen, 5-9 2020-2021","suomiAla":"Kaisaniemen ala-asteen koulu 2020-2021","suomiYla":"Kruununhaan yläasteen koulu 2020-2021"}},{"coordinates":{"lon":24.95010978552314,"lat":60.18352420689358},"name":"Kallion ala-asteen koulu","type":"suomiAla","districts":{"ruotsiAla":"Åshöjdens grundskola 2020-2021","ruotsiYla":"Åshöjdens grundskola 2020-2021","suomiAla":"Kallion ala-asteen koulu 2020-2021","suomiYla":"Aleksis Kiven peruskoulu 2020-2021"}},{"coordinates":{"lon":24.970039475113143,"lat":60.167717479462006},"name":"Katajanokan ala-asteen koulu","type":"suomiAla","districts":{"ruotsiAla":"Grundskolan Norsen, Grundskolan Norsen, Cygnaeus-enheten 1-4 2020-2021","ruotsiYla":"Grundskolan Norsen, 5-9 2020-2021","suomiAla":"Katajanokan ala-asteen koulu 2020-2021","suomiYla":"Kruununhaan yläasteen koulu 2020-2021"}},{"coordinates":{"lon":24.838082755008255,"lat":60.237218238015245},"name":"Konalan ala-asteen koulu","type":"suomiAla","districts":{"ruotsiAla":"Västra distrikt, Hoplaxskolan, Kårböle-enheten 1-5 2020-2021","ruotsiYla":"Hoplaxskolan, Munksnäs-enheten 6-9 2020-2021","suomiAla":"Konalan ala-asteen koulu 2020-2021","suomiYla":"Apollon Yhteiskoulu 2020-2021"}},{"coordinates":{"lon":25.09241987493729,"lat":60.23251421717756},"name":"Kontulan ala-asteen koulu","type":"suomiAla","districts":{"ruotsiAla":"Botby grundskola 2020-2021","ruotsiYla":"Botby grundskola 2020-2021","suomiAla":"Kontulan ala-asteen koulu 2020-2021","suomiYla":"Helsingin yhteislyseo 2020-2021"}},{"coordinates":{"lon":25.009118489539347,"lat":60.18587876766942},"name":"Kulosaaren ala-asteen koulu","type":"suomiAla","districts":{"ruotsiAla":"Brändö lågstadieskola 2020-2021","ruotsiYla":"Botby grundskola 2020-2021","suomiAla":"Kulosaaren ala-asteen koulu 2020-2021","suomiYla":"Kulosaaren yhteiskoulu 2020-2021"}},{"coordinates":{"lon":24.929353439157545,"lat":60.22845260697079},"name":"Maunulan ala-asteen koulu","type":"suomiAla","districts":{"ruotsiAla":"Månsas lågstadieskola 2020-2021","ruotsiYla":"Åshöjdens grundskola 2020-2021","suomiAla":"Maunulan ala-asteen koulu 2020-2021","suomiYla":"Maunulan yhteiskoulu ja Hgin matematiikkalukio 2020-2021"}},{"coordinates":{"lon":24.903678185774506,"lat":60.192471577749764},"name":"Meilahden ala-asteen koulu","type":"suomiAla","districts":{"ruotsiAla":"Zacharias Topeliusskolan 2020-2021","ruotsiYla":"Hoplaxskolan, Munksnäs-enheten 6-9 2020-2021","suomiAla":"Meilahden ala-asteen koulu 2020-2021","suomiYla":"Meilahden yläasteen koulu 2020-2021"}},{"coordinates":{"lon":25.121184781870035,"lat":60.232915685598236},"name":"Mellunmäen ala-asteen koulu","type":"suomiAla","districts":{"ruotsiAla":"Botby grundskola 2020-2021","ruotsiYla":"Botby grundskola 2020-2021","suomiAla":"Mellunmäen ala-asteen koulu 2020-2021","suomiYla":"Helsingin yhteislyseo 2020-2021"}},{"coordinates":{"lon":24.94898938475436,"lat":60.2503140975393},"name":"Metsolan ala-asteen koulu","type":"suomiAla","districts":{"ruotsiAla":"Månsas lågstadieskola 2020-2021","ruotsiYla":"Åshöjdens grundskola 2020-2021","suomiAla":"Metsolan ala-asteen koulu 2020-2021","suomiYla":"Oulunkylän yhteiskoulu 2020-2021"}},{"coordinates":{"lon":24.878386335772724,"lat":60.200305777340944},"name":"Munkkiniemen ala-asteen koulu","type":"suomiAla","districts":{"ruotsiAla":"Västra distrikt, Hoplaxskolan, Kårböle-enheten 1-5 2020-2021","ruotsiYla":"Hoplaxskolan, Munksnäs-enheten 6-9 2020-2021","suomiAla":"Munkkiniemen ala-asteen koulu 2020-2021","suomiYla":"Munkkiniemen yhteiskoulu 2020-2021"}},{"coordinates":{"lon":24.870880897973286,"lat":60.20641904899959},"name":"Munkkivuoren ala-asteen koulu","type":"suomiAla","districts":{"ruotsiAla":"Västra distrikt, Hoplaxskolan, Kårböle-enheten 1-5 2020-2021","ruotsiYla":"Hoplaxskolan, Munksnäs-enheten 6-9 2020-2021","suomiAla":"Munkkivuoren ala-asteen koulu 2020-2021","suomiYla":"Munkkiniemen yhteiskoulu 2020-2021"}},{"coordinates":{"lon":24.868293416041187,"lat":60.16118826263408},"name":"Lauttasaaren ala-asteen koulu","type":"suomiAla","districts":{"ruotsiAla":"Drumsö lågstadieskola 2020-2021","ruotsiYla":"Grundskolan Norsen, 5-9 2020-2021","suomiAla":"Lauttasaaren ala-asteen koulu, Lauttasaarentien toimipiste 2020-2021","suomiYla":"Lauttasaaren yhteiskoulu 2020-2021"}},{"coordinates":{"lon":24.960742713134866,"lat":60.232181285149935},"name":"Oulunkylän ala-asteen koulu","type":"suomiAla","districts":{"ruotsiAla":"Kottby lågstadieskola 2020-2021","ruotsiYla":"Åshöjdens grundskola 2020-2021","suomiAla":"Oulunkylän ala-asteen koulu 2020-2021","suomiYla":"Oulunkylän yhteiskoulu 2020-2021"}},{"coordinates":{"lon":24.93616994286388,"lat":60.24928005217673},"name":"Pakilan ala-asteen koulu","type":"suomiAla","districts":{"ruotsiAla":"Månsas lågstadieskola 2020-2021","ruotsiYla":"Åshöjdens grundskola 2020-2021","suomiAla":"Paloheinän ala-asteen koulu 2020-2021","suomiYla":"Pakilan yläasteen koulu 2020-2021"}},{"coordinates":{"lon":24.999705393103596,"lat":60.238010792582585},"name":"Pihlajamäen ala-asteen koulu","type":"suomiAla","districts":{"ruotsiAla":"Staffansby lågstadieskola 2020-2021","ruotsiYla":"Åshöjdens grundskola 2020-2021","suomiAla":"Pihlajamäen ala-asteen koulu 2020-2021","suomiYla":"Helsingin Uusi Yhteiskoulu 2020-2021"}},{"coordinates":{"lon":24.860556836836512,"lat":60.226381838352125},"name":"Pitäjänmäen peruskoulu","type":"suomiAla","districts":{"ruotsiAla":"Västra distrikt, Hoplaxskolan, Kårböle-enheten 1-5 2020-2021","ruotsiYla":"Hoplaxskolan, Munksnäs-enheten 6-9 2020-2021","suomiAla":"Pitäjänmäen peruskoulu 2020-2021","suomiYla":"Pitäjänmäen peruskoulu 2020-2021"}},{"coordinates":{"lon":24.860556836836512,"lat":60.226381838352125},"name":"Pitäjänmäen peruskoulu","type":"suomiYla","districts":{"ruotsiAla":"Västra distrikt, Hoplaxskolan, Kårböle-enheten 1-5 2020-2021","ruotsiYla":"Hoplaxskolan, Munksnäs-enheten 6-9 2020-2021","suomiAla":"Pitäjänmäen peruskoulu 2020-2021","suomiYla":"Pitäjänmäen peruskoulu 2020-2021"}},{"coordinates":{"lon":25.057177240490972,"lat":60.19510647408344},"name":"Porolahden peruskoulu","type":"suomiAla","districts":{"ruotsiAla":"Botby grundskola 2020-2021","ruotsiYla":"Botby grundskola 2020-2021","suomiAla":"Porolahden peruskoulu 2020-2021","suomiYla":"Porolahden peruskoulu 2020-2021"}},{"coordinates":{"lon":25.057177240490972,"lat":60.19510647408344},"name":"Porolahden peruskoulu","type":"suomiYla","districts":{"ruotsiAla":"Botby grundskola 2020-2021","ruotsiYla":"Botby grundskola 2020-2021","suomiAla":"Porolahden peruskoulu 2020-2021","suomiYla":"Porolahden peruskoulu 2020-2021"}},{"coordinates":{"lon":25.05051565899398,"lat":60.269663574747156},"name":"Puistolanraitin ala-ast. koulu","type":"suomiAla","districts":{"ruotsiAla":"Staffansby lågstadieskola 2020-2021","ruotsiYla":"Åshöjdens grundskola 2020-2021","suomiAla":"Puistolanraitin ala-asteen koulu 2020-2021","suomiYla":"Puistolan peruskoulu 2020-2021"}},{"coordinates":{"lon":25.095010534749303,"lat":60.21028636500977},"name":"Puotilan ala-asteen koulu","type":"suomiAla","districts":{"ruotsiAla":"Botby grundskola 2020-2021","ruotsiYla":"Botby grundskola 2020-2021","suomiAla":"Puotilan ala-asteen koulu 2020-2021","suomiYla":"Vartiokylän yläasteen koulu 2020-2021"}},{"coordinates":{"lon":25.073267766577104,"lat":60.214813303555516},"name":"Itäkeskuksen peruskoulu","type":"suomiAla","districts":{"ruotsiAla":"Botby grundskola 2020-2021","ruotsiYla":"Botby grundskola 2020-2021","suomiAla":"Itäkeskuksen peruskoulu 2020-2021","suomiYla":"Itäkeskuksen peruskoulu 2020-2021"}},{"coordinates":{"lon":25.073267766577104,"lat":60.214813303555516},"name":"Itäkeskuksen peruskoulu","type":"suomiYla","districts":{"ruotsiAla":"Botby grundskola 2020-2021","ruotsiYla":"Botby grundskola 2020-2021","suomiAla":"Itäkeskuksen peruskoulu 2020-2021","suomiYla":"Itäkeskuksen peruskoulu 2020-2021"}},{"coordinates":{"lon":25.05302646501148,"lat":60.20061418149463},"name":"Roihuvuoren ala-asteen koulu","type":"suomiAla","districts":{"ruotsiAla":"Botby grundskola 2020-2021","ruotsiYla":"Botby grundskola 2020-2021","suomiAla":"Roihuvuoren ala-asteen koulu 2020-2021","suomiYla":"Porolahden peruskoulu 2020-2021"}},{"coordinates":{"lon":25.046361494001196,"lat":60.15308400539215},"name":"Santahaminan ala-asteen koulu","type":"suomiAla","districts":{"ruotsiAla":"Degerö lågstadieskola 2020-2021","ruotsiYla":"Botby grundskola 2020-2021","suomiAla":"Santahaminan ala-asteen koulu 2020-2021","suomiYla":"Laajasalon peruskoulu 2020-2021"}},{"coordinates":{"lon":24.938437983977714,"lat":60.16114873596952},"name":"Snellmanin ala-asteen koulu","type":"suomiAla","districts":{"ruotsiAla":"Grundskolan Norsen, Grundskolan Norsen, Cygnaeus-enheten 1-4 2020-2021","ruotsiYla":"Grundskolan Norsen, 5-9 2020-2021","suomiAla":"Snellmanin ala-asteen koulu 2020-2021","suomiYla":"Helsingin normaalilyseo 2020-2021"}},{"coordinates":{"lon":24.9895990834482,"lat":60.14850716282782},"name":"Suomenlinnan ala-asteen koulu","type":"suomiAla","districts":{"ruotsiAla":"Grundskolan Norsen, Grundskolan Norsen, Cygnaeus-enheten 1-4 2020-2021","ruotsiYla":"Grundskolan Norsen, 5-9 2020-2021","suomiAla":"Suomenlinnan ala-asteen koulu 2020-2021","suomiYla":"Kruununhaan yläasteen koulu 2020-2021"}},{"coordinates":{"lon":25.03653267086821,"lat":60.167138749107714},"name":"Tahvonlahden ala-aste","type":"suomiAla","districts":{"ruotsiAla":"Degerö lågstadieskola 2020-2021","ruotsiYla":"Botby grundskola 2020-2021","suomiAla":"Tahvonlahden ala-asteen koulu 2020-2021","suomiYla":"Laajasalon peruskoulu 2020-2021"}},{"coordinates":{"lon":24.917091995293006,"lat":60.17550942646348},"name":"Taivallahden peruskoulu","type":"suomiAla","districts":{"ruotsiAla":"Minervaskolan 2020-2021","ruotsiYla":"Grundskolan Norsen, 5-9 2020-2021","suomiAla":"Taivallahden peruskoulu 2020-2021","suomiYla":"Taivallahden peruskoulu 2020-2021"}},{"coordinates":{"lon":24.917091995293006,"lat":60.17550942646348},"name":"Taivallahden peruskoulu","type":"suomiYla","districts":{"ruotsiAla":"Minervaskolan 2020-2021","ruotsiYla":"Grundskolan Norsen, 5-9 2020-2021","suomiAla":"Taivallahden peruskoulu 2020-2021","suomiYla":"Taivallahden peruskoulu 2020-2021"}},{"coordinates":{"lon":25.025379226678268,"lat":60.26492706664423},"name":"Tapanilan ala-asteen koulu","type":"suomiAla","districts":{"ruotsiAla":"Staffansby lågstadieskola 2020-2021","ruotsiYla":"Åshöjdens grundskola 2020-2021","suomiAla":"Tapanilan ala-asteen koulu 2020-2021","suomiYla":"Hiidenkiven peruskoulu 2020-2021"}},{"coordinates":{"lon":24.936837822317234,"lat":60.15505200282863},"name":"Tehtaankadun ala-asteen koulu","type":"suomiAla","districts":{"ruotsiAla":"Grundskolan Norsen, Grundskolan Norsen, Cygnaeus-enheten 1-4 2020-2021","ruotsiYla":"Grundskolan Norsen, 5-9 2020-2021","suomiAla":"Tehtaankadun ala-asteen koulu 2020-2021","suomiYla":"Helsingin normaalilyseo 2020-2021"}},{"coordinates":{"lon":24.89840636142696,"lat":60.22074439552208},"name":"Pohjois-Haagan ala-ast. koulu","type":"suomiAla","districts":{"ruotsiAla":"Västra distrikt, Hoplaxskolan, Kårböle-enheten 1-5 2020-2021","ruotsiYla":"Hoplaxskolan, Munksnäs-enheten 6-9 2020-2021","suomiAla":"Haagan peruskoulu 2020-2021","suomiYla":"Haagan peruskoulu 2020-2021"}},{"coordinates":{"lon":24.921617990622877,"lat":60.18291878830845},"name":"Töölön ala-asteen koulu","type":"suomiAla","districts":{"ruotsiAla":"Zacharias Topeliusskolan 2020-2021","ruotsiYla":"Hoplaxskolan, Munksnäs-enheten 6-9 2020-2021","suomiAla":"Töölön ala-asteen koulu 2020-2021","suomiYla":"Töölön yhteiskoulu 2020-2021"}},{"coordinates":{"lon":24.96409090053347,"lat":60.19276649162979},"name":"Vallilan ala-asteen koulu","type":"suomiAla","districts":{"ruotsiAla":"Åshöjdens grundskola 2020-2021","ruotsiYla":"Åshöjdens grundskola 2020-2021","suomiAla":"Vallilan ala-asteen koulu 2020-2021","suomiYla":"Aleksis Kiven peruskoulu 2020-2021"}},{"coordinates":{"lon":25.099693220620857,"lat":60.218876962708165},"name":"Vartiokylän ala-asteen koulu","type":"suomiAla","districts":{"ruotsiAla":"Botby grundskola 2020-2021","ruotsiYla":"Botby grundskola 2020-2021","suomiAla":"Vartiokylän ala-asteen koulu 2020-2021","suomiYla":"Vartiokylän yläasteen koulu 2020-2021"}},{"coordinates":{"lon":24.940691196649837,"lat":60.214401766429084},"name":"Yhtenäiskoulu","type":"suomiAla","districts":{"ruotsiAla":"Kottby lågstadieskola 2020-2021","ruotsiYla":"Åshöjdens grundskola 2020-2021","suomiAla":"Yhtenäiskoulu 2020-2021","suomiYla":"Yhtenäiskoulu 2020-2021"}},{"coordinates":{"lon":24.940691196649837,"lat":60.214401766429084},"name":"Yhtenäiskoulu","type":"suomiYla","districts":{"ruotsiAla":"Kottby lågstadieskola 2020-2021","ruotsiYla":"Åshöjdens grundskola 2020-2021","suomiAla":"Yhtenäiskoulu 2020-2021","suomiYla":"Yhtenäiskoulu 2020-2021"}},{"coordinates":{"lon":25.002004981883687,"lat":60.1860052545717},"name":"Brändö lågstadieskola","type":"ruotsiAla","districts":{"ruotsiAla":"Brändö lågstadieskola 2020-2021","ruotsiYla":"Botby grundskola 2020-2021","suomiAla":"Kulosaaren ala-asteen koulu 2020-2021","suomiYla":"Kulosaaren yhteiskoulu 2020-2021"}},{"coordinates":{"lon":25.002004981883687,"lat":60.1860052545717},"name":"Brändö lågstadieskola","type":"ruotsiYla","districts":{"ruotsiAla":"Brändö lågstadieskola 2020-2021","ruotsiYla":"Botby grundskola 2020-2021","suomiAla":"Kulosaaren ala-asteen koulu 2020-2021","suomiYla":"Kulosaaren yhteiskoulu 2020-2021"}},{"coordinates":{"lon":24.877520900260226,"lat":60.15755494232839},"name":"Drumsö lågstadieskola","type":"ruotsiAla","districts":{"ruotsiAla":"Drumsö lågstadieskola 2020-2021","ruotsiYla":"Grundskolan Norsen, 5-9 2020-2021","suomiAla":"Lauttasaaren ala-asteen koulu, Lauttasaarentien toimipiste 2020-2021","suomiYla":"Lauttasaaren yhteiskoulu 2020-2021"}},{"coordinates":{"lon":24.877520900260226,"lat":60.15755494232839},"name":"Drumsö lågstadieskola","type":"ruotsiYla","districts":{"ruotsiAla":"Drumsö lågstadieskola 2020-2021","ruotsiYla":"Grundskolan Norsen, 5-9 2020-2021","suomiAla":"Lauttasaaren ala-asteen koulu, Lauttasaarentien toimipiste 2020-2021","suomiYla":"Lauttasaaren yhteiskoulu 2020-2021"}},{"coordinates":{"lon":24.95645188221759,"lat":60.2172682636274},"name":"Kottby Lågstadieskola","type":"ruotsiAla","districts":{"ruotsiAla":"Kottby lågstadieskola 2020-2021","ruotsiYla":"Åshöjdens grundskola 2020-2021","suomiAla":"Yhtenäiskoulu 2020-2021","suomiYla":"Yhtenäiskoulu 2020-2021"}},{"coordinates":{"lon":24.95645188221759,"lat":60.2172682636274},"name":"Kottby Lågstadieskola","type":"ruotsiYla","districts":{"ruotsiAla":"Kottby lågstadieskola 2020-2021","ruotsiYla":"Åshöjdens grundskola 2020-2021","suomiAla":"Yhtenäiskoulu 2020-2021","suomiYla":"Yhtenäiskoulu 2020-2021"}},{"coordinates":{"lon":24.925397142163174,"lat":60.17590018963455},"name":"Minervaskolan","type":"ruotsiAla","districts":{"ruotsiAla":"Minervaskolan 2020-2021","ruotsiYla":"Grundskolan Norsen, 5-9 2020-2021","suomiAla":"Taivallahden peruskoulu 2020-2021","suomiYla":"Taivallahden peruskoulu 2020-2021"}},{"coordinates":{"lon":24.925397142163174,"lat":60.17590018963455},"name":"Minervaskolan","type":"ruotsiYla","districts":{"ruotsiAla":"Minervaskolan 2020-2021","ruotsiYla":"Grundskolan Norsen, 5-9 2020-2021","suomiAla":"Taivallahden peruskoulu 2020-2021","suomiYla":"Taivallahden peruskoulu 2020-2021"}},{"coordinates":{"lon":24.92887029286744,"lat":60.228382191168556},"name":"Månsas lågstadieskola","type":"ruotsiAla","districts":{"ruotsiAla":"Månsas lågstadieskola 2020-2021","ruotsiYla":"Åshöjdens grundskola 2020-2021","suomiAla":"Maunulan ala-asteen koulu 2020-2021","suomiYla":"Maunulan yhteiskoulu ja Hgin matematiikkalukio 2020-2021"}},{"coordinates":{"lon":24.92887029286744,"lat":60.228382191168556},"name":"Månsas lågstadieskola","type":"ruotsiYla","districts":{"ruotsiAla":"Månsas lågstadieskola 2020-2021","ruotsiYla":"Åshöjdens grundskola 2020-2021","suomiAla":"Maunulan ala-asteen koulu 2020-2021","suomiYla":"Maunulan yhteiskoulu ja Hgin matematiikkalukio 2020-2021"}},{"coordinates":{"lon":25.001283905686392,"lat":60.25983315323827},"name":"Staffansby lågstadieskola","type":"ruotsiAla","districts":{"ruotsiAla":"Staffansby lågstadieskola 2020-2021","ruotsiYla":"Åshöjdens grundskola 2020-2021","suomiAla":"Malmin peruskoulu 2020-2021","suomiYla":"Malmin peruskoulu 2020-2021"}},{"coordinates":{"lon":25.001283905686392,"lat":60.25983315323827},"name":"Staffansby lågstadieskola","type":"ruotsiYla","districts":{"ruotsiAla":"Staffansby lågstadieskola 2020-2021","ruotsiYla":"Åshöjdens grundskola 2020-2021","suomiAla":"Malmin peruskoulu 2020-2021","suomiYla":"Malmin peruskoulu 2020-2021"}},{"coordinates":{"lon":24.939750351061427,"lat":60.19257006405444},"name":"Pasilan peruskoulu","type":"suomiAla","districts":{"ruotsiAla":"Åshöjdens grundskola 2020-2021","ruotsiYla":"Åshöjdens grundskola 2020-2021","suomiAla":"Pasilan peruskoulu 2020-2021","suomiYla":"Pasilan peruskoulu 2020-2021"}},{"coordinates":{"lon":24.939750351061427,"lat":60.19257006405444},"name":"Pasilan peruskoulu","type":"suomiYla","districts":{"ruotsiAla":"Åshöjdens grundskola 2020-2021","ruotsiYla":"Åshöjdens grundskola 2020-2021","suomiAla":"Pasilan peruskoulu 2020-2021","suomiYla":"Pasilan peruskoulu 2020-2021"}},{"coordinates":{"lon":24.882482334360358,"lat":60.24844326564118},"name":"Kannelmäen peruskoulu","type":"suomiAla","districts":{"ruotsiAla":"Västra distrikt, Hoplaxskolan, Kårböle-enheten 1-5 2020-2021","ruotsiYla":"Hoplaxskolan, Munksnäs-enheten 6-9 2020-2021","suomiAla":"Kannelmäen peruskoulu 2020-2021","suomiYla":"Kannelmäen peruskoulu 2020-2021"}},{"coordinates":{"lon":24.882482334360358,"lat":60.24844326564118},"name":"Kannelmäen peruskoulu","type":"suomiYla","districts":{"ruotsiAla":"Västra distrikt, Hoplaxskolan, Kårböle-enheten 1-5 2020-2021","ruotsiYla":"Hoplaxskolan, Munksnäs-enheten 6-9 2020-2021","suomiAla":"Kannelmäen peruskoulu 2020-2021","suomiYla":"Kannelmäen peruskoulu 2020-2021"}},{"coordinates":{"lon":24.94580432082342,"lat":60.20999909884721},"name":"Käpylän peruskoulu","type":"suomiAla","districts":{"ruotsiAla":"Kottby lågstadieskola 2020-2021","ruotsiYla":"Åshöjdens grundskola 2020-2021","suomiAla":"Käpylän peruskoulu 2020-2021","suomiYla":"Käpylän peruskoulu 2020-2021"}},{"coordinates":{"lon":24.94580432082342,"lat":60.20999909884721},"name":"Käpylän peruskoulu","type":"suomiYla","districts":{"ruotsiAla":"Kottby lågstadieskola 2020-2021","ruotsiYla":"Åshöjdens grundskola 2020-2021","suomiAla":"Käpylän peruskoulu 2020-2021","suomiYla":"Käpylän peruskoulu 2020-2021"}},{"coordinates":{"lon":25.079380729979395,"lat":60.26058185598134},"name":"Kankarepuiston peruskoulu","type":"suomiAla","districts":{"ruotsiAla":"Staffansby lågstadieskola 2020-2021","ruotsiYla":"Åshöjdens grundskola 2020-2021","suomiAla":"Jakomäen peruskoulu 2020-2021","suomiYla":"Jakomäen peruskoulu 2020-2021"}},{"coordinates":{"lon":25.079380729979395,"lat":60.26058185598134},"name":"Kankarepuiston peruskoulu","type":"suomiYla","districts":{"ruotsiAla":"Staffansby lågstadieskola 2020-2021","ruotsiYla":"Åshöjdens grundskola 2020-2021","suomiAla":"Jakomäen peruskoulu 2020-2021","suomiYla":"Jakomäen peruskoulu 2020-2021"}},{"coordinates":{"lon":24.95633572625365,"lat":60.18461734621503},"name":"Kruununhaan yläasteen koulu","type":"suomiYla","districts":{"ruotsiAla":"Åshöjdens grundskola 2020-2021","ruotsiYla":"Åshöjdens grundskola 2020-2021","suomiAla":"Kallion ala-asteen koulu 2020-2021","suomiYla":"Aleksis Kiven peruskoulu 2020-2021"}},{"coordinates":{"lon":25.057523377719278,"lat":60.178872784842724},"name":"Laajasalon peruskoulu","type":"suomiAla","districts":{"ruotsiAla":"Degerö lågstadieskola 2020-2021","ruotsiYla":"Botby grundskola 2020-2021","suomiAla":"Laajasalon peruskoulu 2020-2021","suomiYla":"Laajasalon peruskoulu 2020-2021"}},{"coordinates":{"lon":25.057523377719278,"lat":60.178872784842724},"name":"Laajasalon peruskoulu","type":"suomiYla","districts":{"ruotsiAla":"Degerö lågstadieskola 2020-2021","ruotsiYla":"Botby grundskola 2020-2021","suomiAla":"Laajasalon peruskoulu 2020-2021","suomiYla":"Laajasalon peruskoulu 2020-2021"}},{"coordinates":{"lon":25.003093943884483,"lat":60.275515440172576},"name":"Suutarinkylän peruskoulu","type":"suomiAla","districts":{"ruotsiAla":"Staffansby lågstadieskola 2020-2021","ruotsiYla":"Åshöjdens grundskola 2020-2021","suomiAla":"Suutarinkylän peruskoulu 2020-2021","suomiYla":"Suutarinkylän peruskoulu 2020-2021"}},{"coordinates":{"lon":25.003093943884483,"lat":60.275515440172576},"name":"Suutarinkylän peruskoulu","type":"suomiYla","districts":{"ruotsiAla":"Staffansby lågstadieskola 2020-2021","ruotsiYla":"Åshöjdens grundskola 2020-2021","suomiAla":"Suutarinkylän peruskoulu 2020-2021","suomiYla":"Suutarinkylän peruskoulu 2020-2021"}},{"coordinates":{"lon":24.898936631436445,"lat":60.194121061606374},"name":"Meilahden yläasteen koulu","type":"suomiYla","districts":{"ruotsiAla":"Zacharias Topeliusskolan 2020-2021","ruotsiYla":"Hoplaxskolan, Munksnäs-enheten 6-9 2020-2021","suomiAla":"Meilahden ala-asteen koulu 2020-2021","suomiYla":"Meilahden yläasteen koulu 2020-2021"}},{"coordinates":{"lon":25.071165574228957,"lat":60.22048602669925},"name":"Myllypuron peruskoulu","type":"suomiAla","districts":{"ruotsiAla":"Botby grundskola 2020-2021","ruotsiYla":"Botby grundskola 2020-2021","suomiAla":"Myllypuron peruskoulu 2020-2021","suomiYla":"Myllypuron peruskoulu 2020-2021"}},{"coordinates":{"lon":25.071165574228957,"lat":60.22048602669925},"name":"Myllypuron peruskoulu","type":"suomiYla","districts":{"ruotsiAla":"Botby grundskola 2020-2021","ruotsiYla":"Botby grundskola 2020-2021","suomiAla":"Myllypuron peruskoulu 2020-2021","suomiYla":"Myllypuron peruskoulu 2020-2021"}},{"coordinates":{"lon":24.927661137611757,"lat":60.24180924097854},"name":"Pakilan yläasteen koulu","type":"suomiYla","districts":{"ruotsiAla":"Månsas lågstadieskola 2020-2021","ruotsiYla":"Åshöjdens grundskola 2020-2021","suomiAla":"Pakilan ala-asteen koulu 2020-2021","suomiYla":"Pakilan yläasteen koulu 2020-2021"}},{"coordinates":{"lon":25.020539304522153,"lat":60.2633460795463},"name":"Hiidenkiven peruskoulu","type":"suomiAla","districts":{"ruotsiAla":"Staffansby lågstadieskola 2020-2021","ruotsiYla":"Åshöjdens grundskola 2020-2021","suomiAla":"Hiidenkiven peruskoulu 2020-2021","suomiYla":"Hiidenkiven peruskoulu 2020-2021"}},{"coordinates":{"lon":25.020539304522153,"lat":60.2633460795463},"name":"Hiidenkiven peruskoulu","type":"suomiYla","districts":{"ruotsiAla":"Staffansby lågstadieskola 2020-2021","ruotsiYla":"Åshöjdens grundskola 2020-2021","suomiAla":"Hiidenkiven peruskoulu 2020-2021","suomiYla":"Hiidenkiven peruskoulu 2020-2021"}},{"coordinates":{"lon":24.990478568670746,"lat":60.24944882575812},"name":"Pukinmäenkaaren peruskoulu","type":"suomiAla","districts":{"ruotsiAla":"Staffansby lågstadieskola 2020-2021","ruotsiYla":"Åshöjdens grundskola 2020-2021","suomiAla":"Pukinmäenkaaren peruskoulu 2020-2021","suomiYla":"Pukinmäenkaaren peruskoulu 2020-2021"}},{"coordinates":{"lon":24.990478568670746,"lat":60.24944882575812},"name":"Pukinmäenkaaren peruskoulu","type":"suomiYla","districts":{"ruotsiAla":"Staffansby lågstadieskola 2020-2021","ruotsiYla":"Åshöjdens grundskola 2020-2021","suomiAla":"Pukinmäenkaaren peruskoulu 2020-2021","suomiYla":"Pukinmäenkaaren peruskoulu 2020-2021"}},{"coordinates":{"lon":24.924785760161623,"lat":60.167016397247316},"name":"Ressun peruskoulu","type":"suomiAla","districts":{"ruotsiAla":"Minervaskolan 2020-2021","ruotsiYla":"Grundskolan Norsen, 5-9 2020-2021","suomiAla":"Ressun peruskoulu 2020-2021","suomiYla":"Ressun peruskoulu 2020-2021"}},{"coordinates":{"lon":24.924785760161623,"lat":60.167016397247316},"name":"Ressun peruskoulu","type":"suomiYla","districts":{"ruotsiAla":"Minervaskolan 2020-2021","ruotsiYla":"Grundskolan Norsen, 5-9 2020-2021","suomiAla":"Ressun peruskoulu 2020-2021","suomiYla":"Ressun peruskoulu 2020-2021"}},{"coordinates":{"lon":25.14546780477979,"lat":60.209088528490334},"name":"Puistopolun peruskoulu","type":"suomiAla","districts":{"ruotsiAla":"Nordsjö lågstadieskola 2020-2021","ruotsiYla":"Botby grundskola 2020-2021","suomiAla":"Puistopolun peruskoulu 2020-2021","suomiYla":"Puistopolun peruskoulu 2020-2021"}},{"coordinates":{"lon":25.14546780477979,"lat":60.209088528490334},"name":"Puistopolun peruskoulu","type":"suomiYla","districts":{"ruotsiAla":"Nordsjö lågstadieskola 2020-2021","ruotsiYla":"Botby grundskola 2020-2021","suomiAla":"Puistopolun peruskoulu 2020-2021","suomiYla":"Puistopolun peruskoulu 2020-2021"}},{"coordinates":{"lon":25.098187309802796,"lat":60.213708995755844},"name":"Vartiokylän yläasteen koulu","type":"suomiYla","districts":{"ruotsiAla":"Botby grundskola 2020-2021","ruotsiYla":"Botby grundskola 2020-2021","suomiAla":"Puotilan ala-asteen koulu 2020-2021","suomiYla":"Vartiokylän yläasteen koulu 2020-2021"}},{"coordinates":{"lon":25.079509791949043,"lat":60.24202798736646},"name":"Vesalan peruskoulu","type":"suomiAla","districts":{"ruotsiAla":"Botby grundskola 2020-2021","ruotsiYla":"Botby grundskola 2020-2021","suomiAla":"Vesalan peruskoulu 2020-2021","suomiYla":"Vesalan peruskoulu 2020-2021"}},{"coordinates":{"lon":25.079509791949043,"lat":60.24202798736646},"name":"Vesalan peruskoulu","type":"suomiYla","districts":{"ruotsiAla":"Botby grundskola 2020-2021","ruotsiYla":"Botby grundskola 2020-2021","suomiAla":"Vesalan peruskoulu 2020-2021","suomiYla":"Vesalan peruskoulu 2020-2021"}},{"coordinates":{"lon":25.13756879425362,"lat":60.21535460658928},"name":"Vuoniityn peruskoulu","type":"suomiAla","districts":{"ruotsiAla":"Nordsjö lågstadieskola 2020-2021","ruotsiYla":"Botby grundskola 2020-2021","suomiAla":"Vuoniityn peruskoulu 2020-2021","suomiYla":"Vuoniityn peruskoulu 2020-2021"}},{"coordinates":{"lon":25.13756879425362,"lat":60.21535460658928},"name":"Vuoniityn peruskoulu","type":"suomiYla","districts":{"ruotsiAla":"Nordsjö lågstadieskola 2020-2021","ruotsiYla":"Botby grundskola 2020-2021","suomiAla":"Vuoniityn peruskoulu 2020-2021","suomiYla":"Vuoniityn peruskoulu 2020-2021"}},{"coordinates":{"lon":24.99931571928481,"lat":60.25506117200339},"name":"Malmin peruskoulu","type":"suomiAla","districts":{"ruotsiAla":"Staffansby lågstadieskola 2020-2021","ruotsiYla":"Åshöjdens grundskola 2020-2021","suomiAla":"Malmin peruskoulu 2020-2021","suomiYla":"Malmin peruskoulu 2020-2021"}},{"coordinates":{"lon":24.99931571928481,"lat":60.25506117200339},"name":"Malmin peruskoulu","type":"suomiYla","districts":{"ruotsiAla":"Staffansby lågstadieskola 2020-2021","ruotsiYla":"Åshöjdens grundskola 2020-2021","suomiAla":"Malmin peruskoulu 2020-2021","suomiYla":"Malmin peruskoulu 2020-2021"}},{"coordinates":{"lon":25.09056280753786,"lat":60.21911407924906},"name":"Botby grundskola","type":"ruotsiAla","districts":{"ruotsiAla":"Botby grundskola 2020-2021","ruotsiYla":"Botby grundskola 2020-2021","suomiAla":"Vartiokylän ala-asteen koulu 2020-2021","suomiYla":"Vartiokylän yläasteen koulu 2020-2021"}},{"coordinates":{"lon":25.09056280753786,"lat":60.21911407924906},"name":"Botby grundskola","type":"ruotsiYla","districts":{"ruotsiAla":"Botby grundskola 2020-2021","ruotsiYla":"Botby grundskola 2020-2021","suomiAla":"Vartiokylän ala-asteen koulu 2020-2021","suomiYla":"Vartiokylän yläasteen koulu 2020-2021"}},{"coordinates":{"lon":24.951227068308015,"lat":60.16327825877523},"name":"Grundskolan Norsen","type":"ruotsiAla","districts":{"ruotsiAla":"Grundskolan Norsen, Grundskolan Norsen, Cygnaeus-enheten 1-4 2020-2021","ruotsiYla":"Grundskolan Norsen, 5-9 2020-2021","suomiAla":"Helsingin normaalilyseo 2020-2021","suomiYla":"Helsingin normaalilyseo 2020-2021"}},{"coordinates":{"lon":24.951227068308015,"lat":60.16327825877523},"name":"Grundskolan Norsen","type":"ruotsiYla","districts":{"ruotsiAla":"Grundskolan Norsen, Grundskolan Norsen, Cygnaeus-enheten 1-4 2020-2021","ruotsiYla":"Grundskolan Norsen, 5-9 2020-2021","suomiAla":"Helsingin normaalilyseo 2020-2021","suomiYla":"Helsingin normaalilyseo 2020-2021"}},{"coordinates":{"lon":24.877649945513358,"lat":60.19606341776321},"name":"Hoplaxskolan","type":"ruotsiAla","districts":{"ruotsiAla":"Västra distrikt, Hoplaxskolan, Kårböle-enheten 1-5 2020-2021","ruotsiYla":"Hoplaxskolan, Munksnäs-enheten 6-9 2020-2021","suomiAla":"Munkkiniemen ala-asteen koulu 2020-2021","suomiYla":"Munkkiniemen yhteiskoulu 2020-2021"}},{"coordinates":{"lon":24.877649945513358,"lat":60.19606341776321},"name":"Hoplaxskolan","type":"ruotsiYla","districts":{"ruotsiAla":"Västra distrikt, Hoplaxskolan, Kårböle-enheten 1-5 2020-2021","ruotsiYla":"Hoplaxskolan, Munksnäs-enheten 6-9 2020-2021","suomiAla":"Munkkiniemen ala-asteen koulu 2020-2021","suomiYla":"Munkkiniemen yhteiskoulu 2020-2021"}},{"coordinates":{"lon":24.94511885656298,"lat":60.18922229874155},"name":"Åshöjdens grundskola","type":"ruotsiAla","districts":{"ruotsiAla":"Åshöjdens grundskola 2020-2021","ruotsiYla":"Åshöjdens grundskola 2020-2021","suomiAla":"Aleksis Kiven peruskoulu 2020-2021","suomiYla":"Aleksis Kiven peruskoulu 2020-2021"}},{"coordinates":{"lon":24.94511885656298,"lat":60.18922229874155},"name":"Åshöjdens grundskola","type":"ruotsiYla","districts":{"ruotsiAla":"Åshöjdens grundskola 2020-2021","ruotsiYla":"Åshöjdens grundskola 2020-2021","suomiAla":"Aleksis Kiven peruskoulu 2020-2021","suomiYla":"Aleksis Kiven peruskoulu 2020-2021"}},{"coordinates":{"lon":24.928393388127237,"lat":60.167261477367816},"name":"H:gin Juutalainen Yhteiskoulu","type":"suomiAla","districts":{"ruotsiAla":"Minervaskolan 2020-2021","ruotsiYla":"Grundskolan Norsen, 5-9 2020-2021","suomiAla":"Ressun peruskoulu 2020-2021","suomiYla":"Ressun peruskoulu 2020-2021"}},{"coordinates":{"lon":24.928393388127237,"lat":60.167261477367816},"name":"H:gin Juutalainen Yhteiskoulu","type":"suomiYla","districts":{"ruotsiAla":"Minervaskolan 2020-2021","ruotsiYla":"Grundskolan Norsen, 5-9 2020-2021","suomiAla":"Ressun peruskoulu 2020-2021","suomiYla":"Ressun peruskoulu 2020-2021"}},{"coordinates":{"lon":24.806945558954023,"lat":60.181995973145995},"name":"Aarnivalkean koulu","type":"suomiAla","districts":{"ruotsiAla":"Vindängen","ruotsiYla":"Vindängen","suomiAla":"Tapiolan oppilasalue","suomiYla":"Tapiolan oppilasalue"}},{"coordinates":{"lon":24.806945558954023,"lat":60.181995973145995},"name":"Aarnivalkean koulu","type":"suomiYla","districts":{"ruotsiAla":"Vindängen","ruotsiYla":"Vindängen","suomiAla":"Tapiolan oppilasalue","suomiYla":"Tapiolan oppilasalue"}},{"coordinates":{"lon":24.715159007771533,"lat":60.23194242155001},"name":"Auroran koulu","type":"suomiAla","districts":{"ruotsiAla":"Bemböle","ruotsiYla":"Bemböle","suomiAla":"Keski- ja Pohjois-Espoon oppilasalue","suomiYla":"Keski- ja Pohjois-Espoon oppilasalue"}},{"coordinates":{"lon":24.715159007771533,"lat":60.23194242155001},"name":"Auroran koulu","type":"suomiYla","districts":{"ruotsiAla":"Bemböle","ruotsiYla":"Bemböle","suomiAla":"Keski- ja Pohjois-Espoon oppilasalue","suomiYla":"Keski- ja Pohjois-Espoon oppilasalue"}},{"coordinates":{"lon":24.706980225906545,"lat":60.16907560485385},"name":"Friisilän koulu","type":"suomiAla","districts":{"ruotsiAla":"Finno","ruotsiYla":"Finno","suomiAla":"Matinkylän-Olarin oppilasalue","suomiYla":"Matinkylän-Olarin oppilasalue"}},{"coordinates":{"lon":24.706980225906545,"lat":60.16907560485385},"name":"Friisilän koulu","type":"suomiYla","districts":{"ruotsiAla":"Finno","ruotsiYla":"Finno","suomiAla":"Matinkylän-Olarin oppilasalue","suomiYla":"Matinkylän-Olarin oppilasalue"}},{"coordinates":{"lon":24.592249996408384,"lat":60.190252194940015},"name":"Hansakallion koulu","type":"suomiAla","districts":{"ruotsiAla":"Kungsgård","ruotsiYla":"Kungsgård","suomiAla":"Keski- ja Pohjois-Espoon oppilasalue","suomiYla":"Keski- ja Pohjois-Espoon oppilasalue"}},{"coordinates":{"lon":24.592249996408384,"lat":60.190252194940015},"name":"Hansakallion koulu","type":"suomiYla","districts":{"ruotsiAla":"Kungsgård","ruotsiYla":"Kungsgård","suomiAla":"Keski- ja Pohjois-Espoon oppilasalue","suomiYla":"Keski- ja Pohjois-Espoon oppilasalue"}},{"coordinates":{"lon":24.700205163697113,"lat":60.14685174632955},"name":"Iivisniemen koulu","type":"suomiAla","districts":{"ruotsiAla":"Storängen","ruotsiYla":"Storängen","suomiAla":"Espoonlahden oppilasalue","suomiYla":"Espoonlahden oppilasalue"}},{"coordinates":{"lon":24.700205163697113,"lat":60.14685174632955},"name":"Iivisniemen koulu","type":"suomiYla","districts":{"ruotsiAla":"Storängen","ruotsiYla":"Storängen","suomiAla":"Espoonlahden oppilasalue","suomiYla":"Espoonlahden oppilasalue"}},{"coordinates":{"lon":24.764832123685576,"lat":60.173028480621824},"name":"Jousenkaaren koulu","type":"suomiAla","districts":{"ruotsiAla":"Mattliden","ruotsiYla":"Mattliden","suomiAla":"Tapiolan oppilasalue","suomiYla":"Tapiolan oppilasalue"}},{"coordinates":{"lon":24.764832123685576,"lat":60.173028480621824},"name":"Jousenkaaren koulu","type":"suomiYla","districts":{"ruotsiAla":"Mattliden","ruotsiYla":"Mattliden","suomiAla":"Tapiolan oppilasalue","suomiYla":"Tapiolan oppilasalue"}},{"coordinates":{"lon":24.769235713870604,"lat":60.245501021284454},"name":"Jupperin koulu","type":"suomiAla","districts":{"ruotsiAla":"Karamalmen","ruotsiYla":"Karamalmen","suomiAla":"Läntisen Leppävaaran oppilasalue","suomiYla":"Läntisen Leppävaaran oppilasalue"}},{"coordinates":{"lon":24.769235713870604,"lat":60.245501021284454},"name":"Jupperin koulu","type":"suomiYla","districts":{"ruotsiAla":"Karamalmen","ruotsiYla":"Karamalmen","suomiAla":"Läntisen Leppävaaran oppilasalue","suomiYla":"Läntisen Leppävaaran oppilasalue"}},{"coordinates":{"lon":24.61978634005203,"lat":60.2287472560624},"name":"Karhusuon koulu","type":"suomiAla","districts":{"ruotsiAla":"Lagstad","ruotsiYla":"Lagstad","suomiAla":"Keski- ja Pohjois-Espoon oppilasalue","suomiYla":"Keski- ja Pohjois-Espoon oppilasalue"}},{"coordinates":{"lon":24.61978634005203,"lat":60.2287472560624},"name":"Karhusuon koulu","type":"suomiYla","districts":{"ruotsiAla":"Lagstad","ruotsiYla":"Lagstad","suomiAla":"Keski- ja Pohjois-Espoon oppilasalue","suomiYla":"Keski- ja Pohjois-Espoon oppilasalue"}},{"coordinates":{"lon":24.83063026960978,"lat":60.181631288728816},"name":"Laajalahden koulu","type":"suomiAla","districts":{"ruotsiAla":"Vindängen","ruotsiYla":"Vindängen","suomiAla":"Tapiolan oppilasalue","suomiYla":"Tapiolan oppilasalue"}},{"coordinates":{"lon":24.83063026960978,"lat":60.181631288728816},"name":"Laajalahden koulu","type":"suomiYla","districts":{"ruotsiAla":"Vindängen","ruotsiYla":"Vindängen","suomiAla":"Tapiolan oppilasalue","suomiYla":"Tapiolan oppilasalue"}},{"coordinates":{"lon":24.706409750033444,"lat":60.31029891214214},"name":"Lahnuksen koulu","type":"suomiAla","districts":{"ruotsiAla":"Rödskog","ruotsiYla":"Rödskog","suomiAla":"Keski- ja Pohjois-Espoon oppilasalue","suomiYla":"Keski- ja Pohjois-Espoon oppilasalue"}},{"coordinates":{"lon":24.706409750033444,"lat":60.31029891214214},"name":"Lahnuksen koulu","type":"suomiYla","districts":{"ruotsiAla":"Rödskog","ruotsiYla":"Rödskog","suomiAla":"Keski- ja Pohjois-Espoon oppilasalue","suomiYla":"Keski- ja Pohjois-Espoon oppilasalue"}},{"coordinates":{"lon":24.806530379268757,"lat":60.238748300104604},"name":"Lintuvaaran koulu","type":"suomiAla","districts":{"ruotsiAla":"Boställ","ruotsiYla":"Boställ","suomiAla":"Itäisen Leppävaaran oppilasalue","suomiYla":"Itäisen Leppävaaran oppilasalue"}},{"coordinates":{"lon":24.806530379268757,"lat":60.238748300104604},"name":"Lintuvaaran koulu","type":"suomiYla","districts":{"ruotsiAla":"Boställ","ruotsiYla":"Boställ","suomiAla":"Itäisen Leppävaaran oppilasalue","suomiYla":"Itäisen Leppävaaran oppilasalue"}},{"coordinates":{"lon":24.74326159929125,"lat":60.243786305770705},"name":"Lähderannan koulu","type":"suomiAla","districts":{"ruotsiAla":"Karamalmen","ruotsiYla":"Karamalmen","suomiAla":"Läntisen Leppävaaran oppilasalue","suomiYla":"Läntisen Leppävaaran oppilasalue"}},{"coordinates":{"lon":24.74326159929125,"lat":60.243786305770705},"name":"Lähderannan koulu","type":"suomiYla","districts":{"ruotsiAla":"Karamalmen","ruotsiYla":"Karamalmen","suomiAla":"Läntisen Leppävaaran oppilasalue","suomiYla":"Läntisen Leppävaaran oppilasalue"}},{"coordinates":{"lon":24.643824964599656,"lat":60.1527683907537},"name":"Mainingin koulu","type":"suomiAla","districts":{"ruotsiAla":"Storängen","ruotsiYla":"Storängen","suomiAla":"Espoonlahden oppilasalue","suomiYla":"Espoonlahden oppilasalue"}},{"coordinates":{"lon":24.643824964599656,"lat":60.1527683907537},"name":"Mainingin koulu","type":"suomiYla","districts":{"ruotsiAla":"Storängen","ruotsiYla":"Storängen","suomiAla":"Espoonlahden oppilasalue","suomiYla":"Espoonlahden oppilasalue"}},{"coordinates":{"lon":24.77619820188664,"lat":60.1923792618409},"name":"Mankkaanpuron koulu","type":"suomiAla","districts":{"ruotsiAla":"Vindängen","ruotsiYla":"Vindängen","suomiAla":"Tapiolan oppilasalue","suomiYla":"Tapiolan oppilasalue"}},{"coordinates":{"lon":24.77619820188664,"lat":60.1923792618409},"name":"Mankkaanpuron koulu","type":"suomiYla","districts":{"ruotsiAla":"Vindängen","ruotsiYla":"Vindängen","suomiAla":"Tapiolan oppilasalue","suomiYla":"Tapiolan oppilasalue"}},{"coordinates":{"lon":24.755023259633653,"lat":60.15560722548785},"name":"Matinlahden koulu","type":"suomiAla","districts":{"ruotsiAla":"Mattliden","ruotsiYla":"Mattliden","suomiAla":"Matinkylän-Olarin oppilasalue","suomiYla":"Matinkylän-Olarin oppilasalue"}},{"coordinates":{"lon":24.755023259633653,"lat":60.15560722548785},"name":"Matinlahden koulu","type":"suomiYla","districts":{"ruotsiAla":"Mattliden","ruotsiYla":"Mattliden","suomiAla":"Matinkylän-Olarin oppilasalue","suomiYla":"Matinkylän-Olarin oppilasalue"}},{"coordinates":{"lon":24.74684877736507,"lat":60.283872972289366},"name":"Niipperin koulu","type":"suomiAla","districts":{"ruotsiAla":"Rödskog","ruotsiYla":"Rödskog","suomiAla":"Keski- ja Pohjois-Espoon oppilasalue","suomiYla":"Keski- ja Pohjois-Espoon oppilasalue"}},{"coordinates":{"lon":24.74684877736507,"lat":60.283872972289366},"name":"Niipperin koulu","type":"suomiYla","districts":{"ruotsiAla":"Rödskog","ruotsiYla":"Rödskog","suomiAla":"Keski- ja Pohjois-Espoon oppilasalue","suomiYla":"Keski- ja Pohjois-Espoon oppilasalue"}},{"coordinates":{"lon":24.76781531566245,"lat":60.170249294253395},"name":"Niittykummun koulu","type":"suomiAla","districts":{"ruotsiAla":"Mattliden","ruotsiYla":"Mattliden","suomiAla":"Tapiolan oppilasalue","suomiYla":"Tapiolan oppilasalue"}},{"coordinates":{"lon":24.76781531566245,"lat":60.170249294253395},"name":"Niittykummun koulu","type":"suomiYla","districts":{"ruotsiAla":"Mattliden","ruotsiYla":"Mattliden","suomiAla":"Tapiolan oppilasalue","suomiYla":"Tapiolan oppilasalue"}},{"coordinates":{"lon":24.56201411896812,"lat":60.26221081494271},"name":"Nuuksion koulu","type":"suomiAla","districts":{"ruotsiAla":"Bemböle","ruotsiYla":"Bemböle","suomiAla":"Keski- ja Pohjois-Espoon oppilasalue","suomiYla":"Keski- ja Pohjois-Espoon oppilasalue"}},{"coordinates":{"lon":24.56201411896812,"lat":60.26221081494271},"name":"Nuuksion koulu","type":"suomiYla","districts":{"ruotsiAla":"Bemböle","ruotsiYla":"Bemböle","suomiAla":"Keski- ja Pohjois-Espoon oppilasalue","suomiYla":"Keski- ja Pohjois-Espoon oppilasalue"}},{"coordinates":{"lon":24.664970406194183,"lat":60.16660813682943},"name":"Nöykkiönlaakson koulu","type":"suomiAla","districts":{"ruotsiAla":"Finno","ruotsiYla":"Finno","suomiAla":"Espoonlahden oppilasalue","suomiYla":"Espoonlahden oppilasalue"}},{"coordinates":{"lon":24.664970406194183,"lat":60.16660813682943},"name":"Nöykkiönlaakson koulu","type":"suomiYla","districts":{"ruotsiAla":"Finno","ruotsiYla":"Finno","suomiAla":"Espoonlahden oppilasalue","suomiYla":"Espoonlahden oppilasalue"}},{"coordinates":{"lon":24.737756088139,"lat":60.172703682990125},"name":"Päivänkehrän koulu","type":"suomiAla","districts":{"ruotsiAla":"Finno","ruotsiYla":"Finno","suomiAla":"Matinkylän-Olarin oppilasalue","suomiYla":"Matinkylän-Olarin oppilasalue"}},{"coordinates":{"lon":24.737756088139,"lat":60.172703682990125},"name":"Päivänkehrän koulu","type":"suomiYla","districts":{"ruotsiAla":"Finno","ruotsiYla":"Finno","suomiAla":"Matinkylän-Olarin oppilasalue","suomiYla":"Matinkylän-Olarin oppilasalue"}},{"coordinates":{"lon":24.67730622548132,"lat":60.283384447550134},"name":"Pakankylän koulu","type":"suomiAla","districts":{"ruotsiAla":"Rödskog","ruotsiYla":"Rödskog","suomiAla":"Keski- ja Pohjois-Espoon oppilasalue","suomiYla":"Keski- ja Pohjois-Espoon oppilasalue"}},{"coordinates":{"lon":24.67730622548132,"lat":60.283384447550134},"name":"Pakankylän koulu","type":"suomiYla","districts":{"ruotsiAla":"Rödskog","ruotsiYla":"Rödskog","suomiAla":"Keski- ja Pohjois-Espoon oppilasalue","suomiYla":"Keski- ja Pohjois-Espoon oppilasalue"}},{"coordinates":{"lon":24.77159658685217,"lat":60.23336058177768},"name":"Rastaalan koulu","type":"suomiAla","districts":{"ruotsiAla":"Karamalmen","ruotsiYla":"Karamalmen","suomiAla":"Läntisen Leppävaaran oppilasalue","suomiYla":"Läntisen Leppävaaran oppilasalue"}},{"coordinates":{"lon":24.77159658685217,"lat":60.23336058177768},"name":"Rastaalan koulu","type":"suomiYla","districts":{"ruotsiAla":"Karamalmen","ruotsiYla":"Karamalmen","suomiAla":"Läntisen Leppävaaran oppilasalue","suomiYla":"Läntisen Leppävaaran oppilasalue"}},{"coordinates":{"lon":24.79699299724126,"lat":60.1636595443404},"name":"Westendinpuiston koulu","type":"suomiAla","districts":{"ruotsiAla":"Vindängen","ruotsiYla":"Vindängen","suomiAla":"Tapiolan oppilasalue","suomiYla":"Tapiolan oppilasalue"}},{"coordinates":{"lon":24.79699299724126,"lat":60.1636595443404},"name":"Westendinpuiston koulu","type":"suomiYla","districts":{"ruotsiAla":"Vindängen","ruotsiYla":"Vindängen","suomiAla":"Tapiolan oppilasalue","suomiYla":"Tapiolan oppilasalue"}},{"coordinates":{"lon":24.790857468615073,"lat":60.18738766384472},"name":"Sepon koulu","type":"suomiAla","districts":{"ruotsiAla":"Vindängen","ruotsiYla":"Vindängen","suomiAla":"Tapiolan oppilasalue","suomiYla":"Tapiolan oppilasalue"}},{"coordinates":{"lon":24.790857468615073,"lat":60.18738766384472},"name":"Sepon koulu","type":"suomiYla","districts":{"ruotsiAla":"Vindängen","ruotsiYla":"Vindängen","suomiAla":"Tapiolan oppilasalue","suomiYla":"Tapiolan oppilasalue"}},{"coordinates":{"lon":24.67093538039301,"lat":60.138623934513426},"name":"Soukan koulu","type":"suomiAla","districts":{"ruotsiAla":"Storängen","ruotsiYla":"Storängen","suomiAla":"Espoonlahden oppilasalue","suomiYla":"Espoonlahden oppilasalue"}},{"coordinates":{"lon":24.67093538039301,"lat":60.138623934513426},"name":"Soukan koulu","type":"suomiYla","districts":{"ruotsiAla":"Storängen","ruotsiYla":"Storängen","suomiAla":"Espoonlahden oppilasalue","suomiYla":"Espoonlahden oppilasalue"}},{"coordinates":{"lon":24.684093981783473,"lat":60.20222795768164},"name":"Tuomarilan koulu","type":"suomiAla","districts":{"ruotsiAla":"Lagstad","ruotsiYla":"Lagstad","suomiAla":"Keski- ja Pohjois-Espoon oppilasalue","suomiYla":"Keski- ja Pohjois-Espoon oppilasalue"}},{"coordinates":{"lon":24.684093981783473,"lat":60.20222795768164},"name":"Tuomarilan koulu","type":"suomiYla","districts":{"ruotsiAla":"Lagstad","ruotsiYla":"Lagstad","suomiAla":"Keski- ja Pohjois-Espoon oppilasalue","suomiYla":"Keski- ja Pohjois-Espoon oppilasalue"}},{"coordinates":{"lon":24.809580384944375,"lat":60.22418453016082},"name":"Veräjäpellon koulu","type":"suomiAla","districts":{"ruotsiAla":"Boställ","ruotsiYla":"Boställ","suomiAla":"Itäisen Leppävaaran oppilasalue","suomiYla":"Itäisen Leppävaaran oppilasalue"}},{"coordinates":{"lon":24.809580384944375,"lat":60.22418453016082},"name":"Veräjäpellon koulu","type":"suomiYla","districts":{"ruotsiAla":"Boställ","ruotsiYla":"Boställ","suomiAla":"Itäisen Leppävaaran oppilasalue","suomiYla":"Itäisen Leppävaaran oppilasalue"}},{"coordinates":{"lon":24.678213126981586,"lat":60.22287514461471},"name":"Bemböle skola","type":"ruotsiAla","districts":{"ruotsiAla":"Bemböle","ruotsiYla":"Bemböle","suomiAla":"Keski- ja Pohjois-Espoon oppilasalue","suomiYla":"Keski- ja Pohjois-Espoon oppilasalue"}},{"coordinates":{"lon":24.678213126981586,"lat":60.22287514461471},"name":"Bemböle skola","type":"ruotsiYla","districts":{"ruotsiAla":"Bemböle","ruotsiYla":"Bemböle","suomiAla":"Keski- ja Pohjois-Espoon oppilasalue","suomiYla":"Keski- ja Pohjois-Espoon oppilasalue"}},{"coordinates":{"lon":24.82707936894435,"lat":60.226888575283986},"name":"Boställsskolan","type":"ruotsiAla","districts":{"ruotsiAla":"Boställ","ruotsiYla":"Boställ","suomiAla":"Itäisen Leppävaaran oppilasalue","suomiYla":"Itäisen Leppävaaran oppilasalue"}},{"coordinates":{"lon":24.82707936894435,"lat":60.226888575283986},"name":"Boställsskolan","type":"ruotsiYla","districts":{"ruotsiAla":"Boställ","ruotsiYla":"Boställ","suomiAla":"Itäisen Leppävaaran oppilasalue","suomiYla":"Itäisen Leppävaaran oppilasalue"}},{"coordinates":{"lon":24.761098210211127,"lat":60.223096552399355},"name":"Karamalmens skola","type":"ruotsiAla","districts":{"ruotsiAla":"Karamalmen","ruotsiYla":"Karamalmen","suomiAla":"Läntisen Leppävaaran oppilasalue","suomiYla":"Läntisen Leppävaaran oppilasalue"}},{"coordinates":{"lon":24.761098210211127,"lat":60.223096552399355},"name":"Karamalmens skola","type":"ruotsiYla","districts":{"ruotsiAla":"Karamalmen","ruotsiYla":"Karamalmen","suomiAla":"Läntisen Leppävaaran oppilasalue","suomiYla":"Läntisen Leppävaaran oppilasalue"}},{"coordinates":{"lon":24.60052520538783,"lat":60.18340452533883},"name":"Kungsgårdsskolan","type":"ruotsiAla","districts":{"ruotsiAla":"Kungsgård","ruotsiYla":"Kungsgård","suomiAla":"Keski- ja Pohjois-Espoon oppilasalue","suomiYla":"Keski- ja Pohjois-Espoon oppilasalue"}},{"coordinates":{"lon":24.60052520538783,"lat":60.18340452533883},"name":"Kungsgårdsskolan","type":"ruotsiYla","districts":{"ruotsiAla":"Kungsgård","ruotsiYla":"Kungsgård","suomiAla":"Keski- ja Pohjois-Espoon oppilasalue","suomiYla":"Keski- ja Pohjois-Espoon oppilasalue"}},{"coordinates":{"lon":24.656558361846926,"lat":60.20750203200212},"name":"Lagstads skola","type":"ruotsiAla","districts":{"ruotsiAla":"Lagstad","ruotsiYla":"Lagstad","suomiAla":"Keski- ja Pohjois-Espoon oppilasalue","suomiYla":"Keski- ja Pohjois-Espoon oppilasalue"}},{"coordinates":{"lon":24.656558361846926,"lat":60.20750203200212},"name":"Lagstads skola","type":"ruotsiYla","districts":{"ruotsiAla":"Lagstad","ruotsiYla":"Lagstad","suomiAla":"Keski- ja Pohjois-Espoon oppilasalue","suomiYla":"Keski- ja Pohjois-Espoon oppilasalue"}},{"coordinates":{"lon":24.692457232643147,"lat":60.29660145847198},"name":"Rödskogs skola","type":"ruotsiAla","districts":{"ruotsiAla":"Rödskog","ruotsiYla":"Rödskog","suomiAla":"Keski- ja Pohjois-Espoon oppilasalue","suomiYla":"Keski- ja Pohjois-Espoon oppilasalue"}},{"coordinates":{"lon":24.692457232643147,"lat":60.29660145847198},"name":"Rödskogs skola","type":"ruotsiYla","districts":{"ruotsiAla":"Rödskog","ruotsiYla":"Rödskog","suomiAla":"Keski- ja Pohjois-Espoon oppilasalue","suomiYla":"Keski- ja Pohjois-Espoon oppilasalue"}},{"coordinates":{"lon":24.743244694888308,"lat":60.20017603468147},"name":"Smedsby skola","type":"ruotsiAla","districts":{"ruotsiAla":"Smedsby","ruotsiYla":"Smedsby","suomiAla":"Tapiolan oppilasalue","suomiYla":"Tapiolan oppilasalue"}},{"coordinates":{"lon":24.743244694888308,"lat":60.20017603468147},"name":"Smedsby skola","type":"ruotsiYla","districts":{"ruotsiAla":"Smedsby","ruotsiYla":"Smedsby","suomiAla":"Tapiolan oppilasalue","suomiYla":"Tapiolan oppilasalue"}},{"coordinates":{"lon":24.66481913824727,"lat":60.14486705983123},"name":"Espoonlahden koulu","type":"suomiAla","districts":{"ruotsiAla":"Storängen","ruotsiYla":"Storängen","suomiAla":"Espoonlahden oppilasalue","suomiYla":"Espoonlahden oppilasalue"}},{"coordinates":{"lon":24.66481913824727,"lat":60.14486705983123},"name":"Espoonlahden koulu","type":"suomiYla","districts":{"ruotsiAla":"Storängen","ruotsiYla":"Storängen","suomiAla":"Espoonlahden oppilasalue","suomiYla":"Espoonlahden oppilasalue"}},{"coordinates":{"lon":24.765858147575315,"lat":60.165886749358116},"name":"Haukilahden koulu","type":"suomiAla","districts":{"ruotsiAla":"Mattliden","ruotsiYla":"Mattliden","suomiAla":"Tapiolan oppilasalue","suomiYla":"Tapiolan oppilasalue"}},{"coordinates":{"lon":24.765858147575315,"lat":60.165886749358116},"name":"Haukilahden koulu","type":"suomiYla","districts":{"ruotsiAla":"Mattliden","ruotsiYla":"Mattliden","suomiAla":"Tapiolan oppilasalue","suomiYla":"Tapiolan oppilasalue"}},{"coordinates":{"lon":24.695947737906348,"lat":60.148735971502106},"name":"Kaitaan koulu","type":"suomiAla","districts":{"ruotsiAla":"Storängen","ruotsiYla":"Storängen","suomiAla":"Espoonlahden oppilasalue","suomiYla":"Espoonlahden oppilasalue"}},{"coordinates":{"lon":24.695947737906348,"lat":60.148735971502106},"name":"Kaitaan koulu","type":"suomiYla","districts":{"ruotsiAla":"Storängen","ruotsiYla":"Storängen","suomiAla":"Espoonlahden oppilasalue","suomiYla":"Espoonlahden oppilasalue"}},{"coordinates":{"lon":24.757960064582143,"lat":60.22938514299372},"name":"Karakallion koulu","type":"suomiAla","districts":{"ruotsiAla":"Karamalmen","ruotsiYla":"Karamalmen","suomiAla":"Läntisen Leppävaaran oppilasalue","suomiYla":"Läntisen Leppävaaran oppilasalue"}},{"coordinates":{"lon":24.757960064582143,"lat":60.22938514299372},"name":"Karakallion koulu","type":"suomiYla","districts":{"ruotsiAla":"Karamalmen","ruotsiYla":"Karamalmen","suomiAla":"Läntisen Leppävaaran oppilasalue","suomiYla":"Läntisen Leppävaaran oppilasalue"}},{"coordinates":{"lon":24.594117552359652,"lat":60.187905612962346},"name":"Kauklahden koulu","type":"suomiAla","districts":{"ruotsiAla":"Kungsgård","ruotsiYla":"Kungsgård","suomiAla":"Keski- ja Pohjois-Espoon oppilasalue","suomiYla":"Keski- ja Pohjois-Espoon oppilasalue"}},{"coordinates":{"lon":24.594117552359652,"lat":60.187905612962346},"name":"Kauklahden koulu","type":"suomiYla","districts":{"ruotsiAla":"Kungsgård","ruotsiYla":"Kungsgård","suomiAla":"Keski- ja Pohjois-Espoon oppilasalue","suomiYla":"Keski- ja Pohjois-Espoon oppilasalue"}},{"coordinates":{"lon":24.81826042653399,"lat":60.23757640487296},"name":"Leppävaaran koulu","type":"suomiAla","districts":{"ruotsiAla":"Boställ","ruotsiYla":"Boställ","suomiAla":"Itäisen Leppävaaran oppilasalue","suomiYla":"Itäisen Leppävaaran oppilasalue"}},{"coordinates":{"lon":24.81826042653399,"lat":60.23757640487296},"name":"Leppävaaran koulu","type":"suomiYla","districts":{"ruotsiAla":"Boställ","ruotsiYla":"Boställ","suomiAla":"Itäisen Leppävaaran oppilasalue","suomiYla":"Itäisen Leppävaaran oppilasalue"}},{"coordinates":{"lon":24.815409338482155,"lat":60.187336522659706},"name":"Pohjois-Tapiolan koulu","type":"suomiAla","districts":{"ruotsiAla":"Vindängen","ruotsiYla":"Vindängen","suomiAla":"Tapiolan oppilasalue","suomiYla":"Tapiolan oppilasalue"}},{"coordinates":{"lon":24.815409338482155,"lat":60.187336522659706},"name":"Pohjois-Tapiolan koulu","type":"suomiYla","districts":{"ruotsiAla":"Vindängen","ruotsiYla":"Vindängen","suomiAla":"Tapiolan oppilasalue","suomiYla":"Tapiolan oppilasalue"}},{"coordinates":{"lon":24.804608110197297,"lat":60.17919070818574},"name":"Tapiolan koulu","type":"suomiAla","districts":{"ruotsiAla":"Vindängen","ruotsiYla":"Vindängen","suomiAla":"Tapiolan oppilasalue","suomiYla":"Tapiolan oppilasalue"}},{"coordinates":{"lon":24.804608110197297,"lat":60.17919070818574},"name":"Tapiolan koulu","type":"suomiYla","districts":{"ruotsiAla":"Vindängen","ruotsiYla":"Vindängen","suomiAla":"Tapiolan oppilasalue","suomiYla":"Tapiolan oppilasalue"}},{"coordinates":{"lon":24.737922418424745,"lat":60.22846108819549},"name":"Viherlaakson koulu","type":"suomiAla","districts":{"ruotsiAla":"Karamalmen","ruotsiYla":"Karamalmen","suomiAla":"Läntisen Leppävaaran oppilasalue","suomiYla":"Läntisen Leppävaaran oppilasalue"}},{"coordinates":{"lon":24.737922418424745,"lat":60.22846108819549},"name":"Viherlaakson koulu","type":"suomiYla","districts":{"ruotsiAla":"Karamalmen","ruotsiYla":"Karamalmen","suomiAla":"Läntisen Leppävaaran oppilasalue","suomiYla":"Läntisen Leppävaaran oppilasalue"}},{"coordinates":{"lon":24.751533237673907,"lat":60.16422515263305},"name":"Mattlidens skola","type":"ruotsiAla","districts":{"ruotsiAla":"Mattliden","ruotsiYla":"Mattliden","suomiAla":"Matinkylän-Olarin oppilasalue","suomiYla":"Matinkylän-Olarin oppilasalue"}},{"coordinates":{"lon":24.751533237673907,"lat":60.16422515263305},"name":"Mattlidens skola","type":"ruotsiYla","districts":{"ruotsiAla":"Mattliden","ruotsiYla":"Mattliden","suomiAla":"Matinkylän-Olarin oppilasalue","suomiYla":"Matinkylän-Olarin oppilasalue"}},{"coordinates":{"lon":24.715387191194278,"lat":60.213100907061666},"name":"Mäntymäen koulu","type":"suomiAla","districts":{"ruotsiAla":"Kauniainen","ruotsiYla":"Kauniainen","suomiAla":"Kauniainen","suomiYla":"Kauniainen"}},{"coordinates":{"lon":24.715387191194278,"lat":60.213100907061666},"name":"Mäntymäen koulu","type":"suomiYla","districts":{"ruotsiAla":"Kauniainen","ruotsiYla":"Kauniainen","suomiAla":"Kauniainen","suomiYla":"Kauniainen"}},{"coordinates":{"lon":24.71298850436561,"lat":60.216697508136754},"name":"Granhultsskolan","type":"ruotsiAla","districts":{"ruotsiAla":"Kauniainen","ruotsiYla":"Kauniainen","suomiAla":"Kauniainen","suomiYla":"Kauniainen"}},{"coordinates":{"lon":24.71298850436561,"lat":60.216697508136754},"name":"Granhultsskolan","type":"ruotsiYla","districts":{"ruotsiAla":"Kauniainen","ruotsiYla":"Kauniainen","suomiAla":"Kauniainen","suomiYla":"Kauniainen"}},{"coordinates":{"lon":24.703004502047822,"lat":60.21541110331665},"name":"Kasavuoren koulu","type":"suomiAla","districts":{"ruotsiAla":"Kauniainen","ruotsiYla":"Kauniainen","suomiAla":"Kauniainen","suomiYla":"Kauniainen"}},{"coordinates":{"lon":24.703004502047822,"lat":60.21541110331665},"name":"Kasavuoren koulu","type":"suomiYla","districts":{"ruotsiAla":"Kauniainen","ruotsiYla":"Kauniainen","suomiAla":"Kauniainen","suomiYla":"Kauniainen"}},{"coordinates":{"lon":24.72298471952291,"lat":60.21391426202677},"name":"Hagelstamska skolan","type":"ruotsiAla","districts":{"ruotsiAla":"Kauniainen","ruotsiYla":"Kauniainen","suomiAla":"Kauniainen","suomiYla":"Kauniainen"}},{"coordinates":{"lon":24.72298471952291,"lat":60.21391426202677},"name":"Hagelstamska skolan","type":"ruotsiYla","districts":{"ruotsiAla":"Kauniainen","ruotsiYla":"Kauniainen","suomiAla":"Kauniainen","suomiYla":"Kauniainen"}},{"coordinates":{"lon":25.03569996855416,"lat":60.30838024428013},"name":"Hiekkaharjun koulu","type":"suomiAla","districts":{"ruotsiAla":"Dickursby skola","ruotsiYla":"Koko Vantaa","suomiAla":"Itäinen oppilaaksiottoalue","suomiYla":"Itäinen oppilaaksiottoalue"}},{"coordinates":{"lon":25.03569996855416,"lat":60.30838024428013},"name":"Hiekkaharjun koulu","type":"suomiYla","districts":{"ruotsiAla":"Dickursby skola","ruotsiYla":"Koko Vantaa","suomiAla":"Itäinen oppilaaksiottoalue","suomiYla":"Itäinen oppilaaksiottoalue"}},{"coordinates":{"lon":25.109664960986162,"lat":60.2949211977382},"name":"Itä-Hakkilan koulu","type":"suomiAla","districts":{"ruotsiAla":"Västersundom skola","ruotsiYla":"Koko Vantaa","suomiAla":"Itäinen oppilaaksiottoalue","suomiYla":"Itäinen oppilaaksiottoalue"}},{"coordinates":{"lon":25.109664960986162,"lat":60.2949211977382},"name":"Itä-Hakkilan koulu","type":"suomiYla","districts":{"ruotsiAla":"Västersundom skola","ruotsiYla":"Koko Vantaa","suomiAla":"Itäinen oppilaaksiottoalue","suomiYla":"Itäinen oppilaaksiottoalue"}},{"coordinates":{"lon":25.111690082461557,"lat":60.346682340676615},"name":"Jokivarren koulu","type":"suomiAla","districts":{"ruotsiAla":"Dickursby skola","ruotsiYla":"Koko Vantaa","suomiAla":"Koillinen oppilaaksiottoalue","suomiYla":"Koillinen oppilaaksiottoalue"}},{"coordinates":{"lon":25.111690082461557,"lat":60.346682340676615},"name":"Jokivarren koulu","type":"suomiYla","districts":{"ruotsiAla":"Dickursby skola","ruotsiYla":"Koko Vantaa","suomiAla":"Koillinen oppilaaksiottoalue","suomiYla":"Koillinen oppilaaksiottoalue"}},{"coordinates":{"lon":24.86851817581638,"lat":60.26755810274753},"name":"Kaivokselan koulu","type":"suomiAla","districts":{"ruotsiAla":"Mårtensdals skola","ruotsiYla":"Koko Vantaa","suomiAla":"Läntinen oppilaaksiottoalue","suomiYla":"Läntinen oppilaaksiottoalue"}},{"coordinates":{"lon":24.86851817581638,"lat":60.26755810274753},"name":"Kaivokselan koulu","type":"suomiYla","districts":{"ruotsiAla":"Mårtensdals skola","ruotsiYla":"Koko Vantaa","suomiAla":"Läntinen oppilaaksiottoalue","suomiYla":"Läntinen oppilaaksiottoalue"}},{"coordinates":{"lon":24.860377813309345,"lat":60.28063080224356},"name":"Kivimäen koulu","type":"suomiAla","districts":{"ruotsiAla":"Mårtensdals skola","ruotsiYla":"Koko Vantaa","suomiAla":"Läntinen oppilaaksiottoalue","suomiYla":"Läntinen oppilaaksiottoalue"}},{"coordinates":{"lon":24.860377813309345,"lat":60.28063080224356},"name":"Kivimäen koulu","type":"suomiYla","districts":{"ruotsiAla":"Mårtensdals skola","ruotsiYla":"Koko Vantaa","suomiAla":"Läntinen oppilaaksiottoalue","suomiYla":"Läntinen oppilaaksiottoalue"}},{"coordinates":{"lon":25.064735938081867,"lat":60.28328994414299},"name":"Kuusikon koulu","type":"suomiAla","districts":{"ruotsiAla":"Dickursby skola","ruotsiYla":"Koko Vantaa","suomiAla":"Itäinen oppilaaksiottoalue","suomiYla":"Itäinen oppilaaksiottoalue"}},{"coordinates":{"lon":25.064735938081867,"lat":60.28328994414299},"name":"Kuusikon koulu","type":"suomiYla","districts":{"ruotsiAla":"Dickursby skola","ruotsiYla":"Koko Vantaa","suomiAla":"Itäinen oppilaaksiottoalue","suomiYla":"Itäinen oppilaaksiottoalue"}},{"coordinates":{"lon":25.083830509165818,"lat":60.35694470778177},"name":"Leppäkorven koulu","type":"suomiAla","districts":{"ruotsiAla":"Dickursby skola","ruotsiYla":"Koko Vantaa","suomiAla":"Koillinen oppilaaksiottoalue","suomiYla":"Koillinen oppilaaksiottoalue"}},{"coordinates":{"lon":25.083830509165818,"lat":60.35694470778177},"name":"Leppäkorven koulu","type":"suomiYla","districts":{"ruotsiAla":"Dickursby skola","ruotsiYla":"Koko Vantaa","suomiAla":"Koillinen oppilaaksiottoalue","suomiYla":"Koillinen oppilaaksiottoalue"}},{"coordinates":{"lon":25.093895349533426,"lat":60.34136301776337},"name":"Mikkolan koulu","type":"suomiAla","districts":{"ruotsiAla":"Dickursby skola","ruotsiYla":"Koko Vantaa","suomiAla":"Koillinen oppilaaksiottoalue","suomiYla":"Koillinen oppilaaksiottoalue"}},{"coordinates":{"lon":25.093895349533426,"lat":60.34136301776337},"name":"Mikkolan koulu","type":"suomiYla","districts":{"ruotsiAla":"Dickursby skola","ruotsiYla":"Koko Vantaa","suomiAla":"Koillinen oppilaaksiottoalue","suomiYla":"Koillinen oppilaaksiottoalue"}},{"coordinates":{"lon":25.09902258491233,"lat":60.3245604977576},"name":"Päiväkummun koulu","type":"suomiAla","districts":{"ruotsiAla":"Dickursby skola","ruotsiYla":"Koko Vantaa","suomiAla":"Koillinen oppilaaksiottoalue","suomiYla":"Koillinen oppilaaksiottoalue"}},{"coordinates":{"lon":25.09902258491233,"lat":60.3245604977576},"name":"Päiväkummun koulu","type":"suomiYla","districts":{"ruotsiAla":"Dickursby skola","ruotsiYla":"Koko Vantaa","suomiAla":"Koillinen oppilaaksiottoalue","suomiYla":"Koillinen oppilaaksiottoalue"}},{"coordinates":{"lon":25.109635480395777,"lat":60.2525017578285},"name":"Rajakylän koulu","type":"suomiAla","districts":{"ruotsiAla":"Västersundom skola","ruotsiYla":"Koko Vantaa","suomiAla":"Itäinen oppilaaksiottoalue","suomiYla":"Itäinen oppilaaksiottoalue"}},{"coordinates":{"lon":25.109635480395777,"lat":60.2525017578285},"name":"Rajakylän koulu","type":"suomiYla","districts":{"ruotsiAla":"Västersundom skola","ruotsiYla":"Koko Vantaa","suomiAla":"Itäinen oppilaaksiottoalue","suomiYla":"Itäinen oppilaaksiottoalue"}},{"coordinates":{"lon":24.824805402784293,"lat":60.25873816428173},"name":"Rajatorpan koulu","type":"suomiAla","districts":{"ruotsiAla":"Mårtensdals skola","ruotsiYla":"Koko Vantaa","suomiAla":"Läntinen oppilaaksiottoalue","suomiYla":"Läntinen oppilaaksiottoalue"}},{"coordinates":{"lon":24.824805402784293,"lat":60.25873816428173},"name":"Rajatorpan koulu","type":"suomiYla","districts":{"ruotsiAla":"Mårtensdals skola","ruotsiYla":"Koko Vantaa","suomiAla":"Läntinen oppilaaksiottoalue","suomiYla":"Läntinen oppilaaksiottoalue"}},{"coordinates":{"lon":25.07558807887073,"lat":60.332845442882245},"name":"Rekolan koulu","type":"suomiAla","districts":{"ruotsiAla":"Dickursby skola","ruotsiYla":"Koko Vantaa","suomiAla":"Koillinen oppilaaksiottoalue","suomiYla":"Koillinen oppilaaksiottoalue"}},{"coordinates":{"lon":25.07558807887073,"lat":60.332845442882245},"name":"Rekolan koulu","type":"suomiYla","districts":{"ruotsiAla":"Dickursby skola","ruotsiYla":"Koko Vantaa","suomiAla":"Koillinen oppilaaksiottoalue","suomiYla":"Koillinen oppilaaksiottoalue"}},{"coordinates":{"lon":24.876176313126024,"lat":60.34714444929815},"name":"Seutulan koulu","type":"suomiAla","districts":{"ruotsiAla":"Mårtensdals skola","ruotsiYla":"Koko Vantaa","suomiAla":"Läntinen oppilaaksiottoalue","suomiYla":"Läntinen oppilaaksiottoalue"}},{"coordinates":{"lon":24.876176313126024,"lat":60.34714444929815},"name":"Seutulan koulu","type":"suomiYla","districts":{"ruotsiAla":"Mårtensdals skola","ruotsiYla":"Koko Vantaa","suomiAla":"Läntinen oppilaaksiottoalue","suomiYla":"Läntinen oppilaaksiottoalue"}},{"coordinates":{"lon":25.023865350304444,"lat":60.3071090235153},"name":"Simonkallion koulu","type":"suomiAla","districts":{"ruotsiAla":"Dickursby skola","ruotsiYla":"Koko Vantaa","suomiAla":"Itäinen oppilaaksiottoalue","suomiYla":"Itäinen oppilaaksiottoalue"}},{"coordinates":{"lon":25.023865350304444,"lat":60.3071090235153},"name":"Simonkallion koulu","type":"suomiYla","districts":{"ruotsiAla":"Dickursby skola","ruotsiYla":"Koko Vantaa","suomiAla":"Itäinen oppilaaksiottoalue","suomiYla":"Itäinen oppilaaksiottoalue"}},{"coordinates":{"lon":24.85105922216545,"lat":60.269378460537666},"name":"Uomarinteen koulu","type":"suomiAla","districts":{"ruotsiAla":"Mårtensdals skola","ruotsiYla":"Koko Vantaa","suomiAla":"Läntinen oppilaaksiottoalue","suomiYla":"Läntinen oppilaaksiottoalue"}},{"coordinates":{"lon":24.85105922216545,"lat":60.269378460537666},"name":"Uomarinteen koulu","type":"suomiYla","districts":{"ruotsiAla":"Mårtensdals skola","ruotsiYla":"Koko Vantaa","suomiAla":"Läntinen oppilaaksiottoalue","suomiYla":"Läntinen oppilaaksiottoalue"}},{"coordinates":{"lon":24.961081736291092,"lat":60.28629283113693},"name":"Veromäen koulu","type":"suomiAla","districts":{"ruotsiAla":"Dickursby skola","ruotsiYla":"Koko Vantaa","suomiAla":"Läntinen oppilaaksiottoalue","suomiYla":"Läntinen oppilaaksiottoalue"}},{"coordinates":{"lon":24.961081736291092,"lat":60.28629283113693},"name":"Veromäen koulu","type":"suomiYla","districts":{"ruotsiAla":"Dickursby skola","ruotsiYla":"Koko Vantaa","suomiAla":"Läntinen oppilaaksiottoalue","suomiYla":"Läntinen oppilaaksiottoalue"}},{"coordinates":{"lon":25.022091450031336,"lat":60.291239128624305},"name":"Viertolan koulu","type":"suomiAla","districts":{"ruotsiAla":"Dickursby skola","ruotsiYla":"Koko Vantaa","suomiAla":"Itäinen oppilaaksiottoalue","suomiYla":"Itäinen oppilaaksiottoalue"}},{"coordinates":{"lon":25.022091450031336,"lat":60.291239128624305},"name":"Viertolan koulu","type":"suomiYla","districts":{"ruotsiAla":"Dickursby skola","ruotsiYla":"Koko Vantaa","suomiAla":"Itäinen oppilaaksiottoalue","suomiYla":"Itäinen oppilaaksiottoalue"}},{"coordinates":{"lon":25.055905244968518,"lat":60.35705144345294},"name":"Vierumäen koulu","type":"suomiAla","districts":{"ruotsiAla":"Dickursby skola","ruotsiYla":"Koko Vantaa","suomiAla":"Koillinen oppilaaksiottoalue","suomiYla":"Koillinen oppilaaksiottoalue"}},{"coordinates":{"lon":25.055905244968518,"lat":60.35705144345294},"name":"Vierumäen koulu","type":"suomiYla","districts":{"ruotsiAla":"Dickursby skola","ruotsiYla":"Koko Vantaa","suomiAla":"Koillinen oppilaaksiottoalue","suomiYla":"Koillinen oppilaaksiottoalue"}},{"coordinates":{"lon":25.058688295755665,"lat":60.29590151015437},"name":"Dickursby skola","type":"ruotsiAla","districts":{"ruotsiAla":"Dickursby skola","ruotsiYla":"Koko Vantaa","suomiAla":"Itäinen oppilaaksiottoalue","suomiYla":"Itäinen oppilaaksiottoalue"}},{"coordinates":{"lon":25.058688295755665,"lat":60.29590151015437},"name":"Dickursby skola","type":"ruotsiYla","districts":{"ruotsiAla":"Dickursby skola","ruotsiYla":"Koko Vantaa","suomiAla":"Itäinen oppilaaksiottoalue","suomiYla":"Itäinen oppilaaksiottoalue"}},{"coordinates":{"lon":24.845544060888976,"lat":60.28010354215196},"name":"Mårtensdals skola","type":"ruotsiAla","districts":{"ruotsiAla":"Mårtensdals skola","ruotsiYla":"Koko Vantaa","suomiAla":"Läntinen oppilaaksiottoalue","suomiYla":"Läntinen oppilaaksiottoalue"}},{"coordinates":{"lon":24.845544060888976,"lat":60.28010354215196},"name":"Mårtensdals skola","type":"ruotsiYla","districts":{"ruotsiAla":"Mårtensdals skola","ruotsiYla":"Koko Vantaa","suomiAla":"Läntinen oppilaaksiottoalue","suomiYla":"Läntinen oppilaaksiottoalue"}},{"coordinates":{"lon":25.09762137570961,"lat":60.2742447655036},"name":"Lehtikuusen koulu","type":"suomiAla","districts":{"ruotsiAla":"Västersundom skola","ruotsiYla":"Koko Vantaa","suomiAla":"Itäinen oppilaaksiottoalue","suomiYla":"Itäinen oppilaaksiottoalue"}},{"coordinates":{"lon":25.09762137570961,"lat":60.2742447655036},"name":"Lehtikuusen koulu","type":"suomiYla","districts":{"ruotsiAla":"Västersundom skola","ruotsiYla":"Koko Vantaa","suomiAla":"Itäinen oppilaaksiottoalue","suomiYla":"Itäinen oppilaaksiottoalue"}},{"coordinates":{"lon":24.815875131604066,"lat":60.269325265545525},"name":"Hämeenkylän koulu","type":"suomiAla","districts":{"ruotsiAla":"Mårtensdals skola","ruotsiYla":"Koko Vantaa","suomiAla":"Läntinen oppilaaksiottoalue","suomiYla":"Läntinen oppilaaksiottoalue"}},{"coordinates":{"lon":24.815875131604066,"lat":60.269325265545525},"name":"Hämeenkylän koulu","type":"suomiYla","districts":{"ruotsiAla":"Mårtensdals skola","ruotsiYla":"Koko Vantaa","suomiAla":"Läntinen oppilaaksiottoalue","suomiYla":"Läntinen oppilaaksiottoalue"}},{"coordinates":{"lon":24.850348452975677,"lat":60.26147167889105},"name":"Kilterin koulu","type":"suomiAla","districts":{"ruotsiAla":"Mårtensdals skola","ruotsiYla":"Koko Vantaa","suomiAla":"Läntinen oppilaaksiottoalue","suomiYla":"Läntinen oppilaaksiottoalue"}},{"coordinates":{"lon":24.850348452975677,"lat":60.26147167889105},"name":"Kilterin koulu","type":"suomiYla","districts":{"ruotsiAla":"Mårtensdals skola","ruotsiYla":"Koko Vantaa","suomiAla":"Läntinen oppilaaksiottoalue","suomiYla":"Läntinen oppilaaksiottoalue"}},{"coordinates":{"lon":25.07657987831675,"lat":60.3249202435274},"name":"Koivukylän koulu","type":"suomiAla","districts":{"ruotsiAla":"Dickursby skola","ruotsiYla":"Koko Vantaa","suomiAla":"Koillinen oppilaaksiottoalue","suomiYla":"Koillinen oppilaaksiottoalue"}},{"coordinates":{"lon":25.07657987831675,"lat":60.3249202435274},"name":"Koivukylän koulu","type":"suomiYla","districts":{"ruotsiAla":"Dickursby skola","ruotsiYla":"Koko Vantaa","suomiAla":"Koillinen oppilaaksiottoalue","suomiYla":"Koillinen oppilaaksiottoalue"}},{"coordinates":{"lon":25.07006179715066,"lat":60.35801202682793},"name":"Korson koulu","type":"suomiAla","districts":{"ruotsiAla":"Dickursby skola","ruotsiYla":"Koko Vantaa","suomiAla":"Koillinen oppilaaksiottoalue","suomiYla":"Koillinen oppilaaksiottoalue"}},{"coordinates":{"lon":25.07006179715066,"lat":60.35801202682793},"name":"Korson koulu","type":"suomiYla","districts":{"ruotsiAla":"Dickursby skola","ruotsiYla":"Koko Vantaa","suomiAla":"Koillinen oppilaaksiottoalue","suomiYla":"Koillinen oppilaaksiottoalue"}},{"coordinates":{"lon":24.844062063137542,"lat":60.27651359045395},"name":"Martinlaakson koulu","type":"suomiAla","districts":{"ruotsiAla":"Mårtensdals skola","ruotsiYla":"Koko Vantaa","suomiAla":"Läntinen oppilaaksiottoalue","suomiYla":"Läntinen oppilaaksiottoalue"}},{"coordinates":{"lon":24.844062063137542,"lat":60.27651359045395},"name":"Martinlaakson koulu","type":"suomiYla","districts":{"ruotsiAla":"Mårtensdals skola","ruotsiYla":"Koko Vantaa","suomiAla":"Läntinen oppilaaksiottoalue","suomiYla":"Läntinen oppilaaksiottoalue"}},{"coordinates":{"lon":25.027957784012475,"lat":60.29837687831346},"name":"Peltolan koulu","type":"suomiAla","districts":{"ruotsiAla":"Dickursby skola","ruotsiYla":"Koko Vantaa","suomiAla":"Itäinen oppilaaksiottoalue","suomiYla":"Itäinen oppilaaksiottoalue"}},{"coordinates":{"lon":25.027957784012475,"lat":60.29837687831346},"name":"Peltolan koulu","type":"suomiYla","districts":{"ruotsiAla":"Dickursby skola","ruotsiYla":"Koko Vantaa","suomiAla":"Itäinen oppilaaksiottoalue","suomiYla":"Itäinen oppilaaksiottoalue"}},{"coordinates":{"lon":25.03511307487012,"lat":60.31664355212648},"name":"Simonkylän koulu","type":"suomiAla","districts":{"ruotsiAla":"Dickursby skola","ruotsiYla":"Koko Vantaa","suomiAla":"Itäinen oppilaaksiottoalue","suomiYla":"Itäinen oppilaaksiottoalue"}},{"coordinates":{"lon":25.03511307487012,"lat":60.31664355212648},"name":"Simonkylän koulu","type":"suomiYla","districts":{"ruotsiAla":"Dickursby skola","ruotsiYla":"Koko Vantaa","suomiAla":"Itäinen oppilaaksiottoalue","suomiYla":"Itäinen oppilaaksiottoalue"}},{"coordinates":{"lon":25.121266512281824,"lat":60.27942234034435},"name":"Sotungin koulu","type":"suomiAla","districts":{"ruotsiAla":"Västersundom skola","ruotsiYla":"Koko Vantaa","suomiAla":"Itäinen oppilaaksiottoalue","suomiYla":"Itäinen oppilaaksiottoalue"}},{"coordinates":{"lon":25.121266512281824,"lat":60.27942234034435},"name":"Sotungin koulu","type":"suomiYla","districts":{"ruotsiAla":"Västersundom skola","ruotsiYla":"Koko Vantaa","suomiAla":"Itäinen oppilaaksiottoalue","suomiYla":"Itäinen oppilaaksiottoalue"}},{"coordinates":{"lon":24.981155376650594,"lat":60.28229722997602},"name":"Helsinge skola","type":"ruotsiAla","districts":{"ruotsiAla":"Dickursby skola","ruotsiYla":"Koko Vantaa","suomiAla":"Läntinen oppilaaksiottoalue","suomiYla":"Läntinen oppilaaksiottoalue"}},{"coordinates":{"lon":24.981155376650594,"lat":60.28229722997602},"name":"Helsinge skola","type":"ruotsiYla","districts":{"ruotsiAla":"Dickursby skola","ruotsiYla":"Koko Vantaa","suomiAla":"Läntinen oppilaaksiottoalue","suomiYla":"Läntinen oppilaaksiottoalue"}},{"coordinates":{"lon":24.669816320548843,"lat":60.2015106649383},"name":"Kirstin koulu","type":"suomiAla","districts":{"ruotsiAla":"Lagstad","ruotsiYla":"Lagstad","suomiAla":"Keski- ja Pohjois-Espoon oppilasalue","suomiYla":"Keski- ja Pohjois-Espoon oppilasalue"}},{"coordinates":{"lon":24.669816320548843,"lat":60.2015106649383},"name":"Kirstin koulu","type":"suomiYla","districts":{"ruotsiAla":"Lagstad","ruotsiYla":"Lagstad","suomiAla":"Keski- ja Pohjois-Espoon oppilasalue","suomiYla":"Keski- ja Pohjois-Espoon oppilasalue"}},{"coordinates":{"lon":25.250811969253757,"lat":60.37659627532493},"name":"Leppätien koulu","type":"suomiAla","districts":{}},{"coordinates":{"lon":25.250811969253757,"lat":60.37659627532493},"name":"Leppätien koulu","type":"suomiYla","districts":{}},{"coordinates":{"lon":24.73468621569768,"lat":60.306176029400405},"name":"Kalajärven koulu","type":"suomiAla","districts":{"ruotsiAla":"Rödskog","ruotsiYla":"Rödskog","suomiAla":"Keski- ja Pohjois-Espoon oppilasalue","suomiYla":"Keski- ja Pohjois-Espoon oppilasalue"}},{"coordinates":{"lon":24.73468621569768,"lat":60.306176029400405},"name":"Kalajärven koulu","type":"suomiYla","districts":{"ruotsiAla":"Rödskog","ruotsiYla":"Rödskog","suomiAla":"Keski- ja Pohjois-Espoon oppilasalue","suomiYla":"Keski- ja Pohjois-Espoon oppilasalue"}},{"coordinates":{"lon":24.819158909987777,"lat":60.21373431831638},"name":"Perkkaanpuiston koulu","type":"suomiAla","districts":{"ruotsiAla":"Boställ","ruotsiYla":"Boställ","suomiAla":"Itäisen Leppävaaran oppilasalue","suomiYla":"Itäisen Leppävaaran oppilasalue"}},{"coordinates":{"lon":24.819158909987777,"lat":60.21373431831638},"name":"Perkkaanpuiston koulu","type":"suomiYla","districts":{"ruotsiAla":"Boställ","ruotsiYla":"Boställ","suomiAla":"Itäisen Leppävaaran oppilasalue","suomiYla":"Itäisen Leppävaaran oppilasalue"}},{"coordinates":{"lon":25.071308489669118,"lat":60.23556809232061},"name":"Keinutien ala-asteen koulu","type":"suomiAla","districts":{"ruotsiAla":"Botby grundskola 2020-2021","ruotsiYla":"Botby grundskola 2020-2021","suomiAla":"Keinutien ala-asteen koulu 2020-2021","suomiYla":"Vesalan peruskoulu 2020-2021"}},{"coordinates":{"lon":25.008519949134612,"lat":60.23058079655865},"name":"Pihlajiston ala-asteen koulu","type":"suomiAla","districts":{"ruotsiAla":"Staffansby lågstadieskola 2020-2021","ruotsiYla":"Åshöjdens grundskola 2020-2021","suomiAla":"Pihlajiston ala-asteen koulu 2020-2021","suomiYla":"Helsingin Uusi Yhteiskoulu 2020-2021"}},{"coordinates":{"lon":24.859269969958106,"lat":60.245277418390806},"name":"Malminkartanon ala-ast. koulu","type":"suomiAla","districts":{"ruotsiAla":"Västra distrikt, Hoplaxskolan, Kårböle-enheten 1-5 2020-2021","ruotsiYla":"Hoplaxskolan, Munksnäs-enheten 6-9 2020-2021","suomiAla":"Malminkartanon ala-asteen koulu 2020-2021","suomiYla":"Apollon Yhteiskoulu 2020-2021"}},{"coordinates":{"lon":25.027345102077796,"lat":60.27371334979082},"name":"Maatullin ala-asteen koulu","type":"suomiAla","districts":{"ruotsiAla":"Staffansby lågstadieskola 2020-2021","ruotsiYla":"Åshöjdens grundskola 2020-2021","suomiAla":"Maatullin ala-asteen koulu 2020-2021","suomiYla":"Hiidenkiven peruskoulu 2020-2021"}},{"coordinates":{"lon":24.806133752713592,"lat":60.25737095857636},"name":"Pähkinärinteen koulu","type":"suomiAla","districts":{"ruotsiAla":"Mårtensdals skola","ruotsiYla":"Koko Vantaa","suomiAla":"Läntinen oppilaaksiottoalue","suomiYla":"Läntinen oppilaaksiottoalue"}},{"coordinates":{"lon":24.806133752713592,"lat":60.25737095857636},"name":"Pähkinärinteen koulu","type":"suomiYla","districts":{"ruotsiAla":"Mårtensdals skola","ruotsiYla":"Koko Vantaa","suomiAla":"Läntinen oppilaaksiottoalue","suomiYla":"Läntinen oppilaaksiottoalue"}},{"coordinates":{"lon":25.066589893118913,"lat":60.31836257821847},"name":"Kytöpuiston koulu","type":"suomiAla","districts":{"ruotsiAla":"Dickursby skola","ruotsiYla":"Koko Vantaa","suomiAla":"Koillinen oppilaaksiottoalue","suomiYla":"Koillinen oppilaaksiottoalue"}},{"coordinates":{"lon":25.066589893118913,"lat":60.31836257821847},"name":"Kytöpuiston koulu","type":"suomiYla","districts":{"ruotsiAla":"Dickursby skola","ruotsiYla":"Koko Vantaa","suomiAla":"Koillinen oppilaaksiottoalue","suomiYla":"Koillinen oppilaaksiottoalue"}},{"coordinates":{"lon":24.99956413978609,"lat":60.27557009172622},"name":"Suutarilan ala-asteen koulu","type":"suomiAla","districts":{"ruotsiAla":"Staffansby lågstadieskola 2020-2021","ruotsiYla":"Åshöjdens grundskola 2020-2021","suomiAla":"Suutarilan ala-asteen koulu 2020-2021","suomiYla":"Suutarinkylän peruskoulu 2020-2021"}},{"coordinates":{"lon":25.069234286743505,"lat":60.35514393967721},"name":"Ruusuvuoren koulu","type":"suomiAla","districts":{"ruotsiAla":"Dickursby skola","ruotsiYla":"Koko Vantaa","suomiAla":"Koillinen oppilaaksiottoalue","suomiYla":"Koillinen oppilaaksiottoalue"}},{"coordinates":{"lon":25.069234286743505,"lat":60.35514393967721},"name":"Ruusuvuoren koulu","type":"suomiYla","districts":{"ruotsiAla":"Dickursby skola","ruotsiYla":"Koko Vantaa","suomiAla":"Koillinen oppilaaksiottoalue","suomiYla":"Koillinen oppilaaksiottoalue"}},{"coordinates":{"lon":24.651956898938025,"lat":60.17794800769062},"name":"Latokasken koulu","type":"suomiAla","districts":{"ruotsiAla":"Finno","ruotsiYla":"Finno","suomiAla":"Espoonlahden oppilasalue","suomiYla":"Espoonlahden oppilasalue"}},{"coordinates":{"lon":24.651956898938025,"lat":60.17794800769062},"name":"Latokasken koulu","type":"suomiYla","districts":{"ruotsiAla":"Finno","ruotsiYla":"Finno","suomiAla":"Espoonlahden oppilasalue","suomiYla":"Espoonlahden oppilasalue"}},{"coordinates":{"lon":24.630504311930903,"lat":60.153581729297},"name":"Meritorin koulu","type":"suomiAla","districts":{"ruotsiAla":"Storängen","ruotsiYla":"Storängen","suomiAla":"Espoonlahden oppilasalue","suomiYla":"Espoonlahden oppilasalue"}},{"coordinates":{"lon":24.630504311930903,"lat":60.153581729297},"name":"Meritorin koulu","type":"suomiYla","districts":{"ruotsiAla":"Storängen","ruotsiYla":"Storängen","suomiAla":"Espoonlahden oppilasalue","suomiYla":"Espoonlahden oppilasalue"}},{"coordinates":{"lon":24.91274593053121,"lat":60.18773743423156},"name":"Zacharias Topeliusskolan","type":"ruotsiAla","districts":{"ruotsiAla":"Zacharias Topeliusskolan 2020-2021","ruotsiYla":"Hoplaxskolan, Munksnäs-enheten 6-9 2020-2021","suomiAla":"Töölön ala-asteen koulu 2020-2021","suomiYla":"Töölön yhteiskoulu 2020-2021"}},{"coordinates":{"lon":24.91274593053121,"lat":60.18773743423156},"name":"Zacharias Topeliusskolan","type":"ruotsiYla","districts":{"ruotsiAla":"Zacharias Topeliusskolan 2020-2021","ruotsiYla":"Hoplaxskolan, Munksnäs-enheten 6-9 2020-2021","suomiAla":"Töölön ala-asteen koulu 2020-2021","suomiYla":"Töölön yhteiskoulu 2020-2021"}},{"coordinates":{"lon":24.665016767969927,"lat":60.208863937769735},"name":"Kirkkojärven koulu","type":"suomiAla","districts":{"ruotsiAla":"Lagstad","ruotsiYla":"Lagstad","suomiAla":"Keski- ja Pohjois-Espoon oppilasalue","suomiYla":"Keski- ja Pohjois-Espoon oppilasalue"}},{"coordinates":{"lon":24.665016767969927,"lat":60.208863937769735},"name":"Kirkkojärven koulu","type":"suomiYla","districts":{"ruotsiAla":"Lagstad","ruotsiYla":"Lagstad","suomiAla":"Keski- ja Pohjois-Espoon oppilasalue","suomiYla":"Keski- ja Pohjois-Espoon oppilasalue"}},{"coordinates":{"lon":24.644552174860674,"lat":60.148146157659774},"name":"Laurinlahden koulu","type":"suomiAla","districts":{"ruotsiAla":"Storängen","ruotsiYla":"Storängen","suomiAla":"Espoonlahden oppilasalue","suomiYla":"Espoonlahden oppilasalue"}},{"coordinates":{"lon":24.644552174860674,"lat":60.148146157659774},"name":"Laurinlahden koulu","type":"suomiYla","districts":{"ruotsiAla":"Storängen","ruotsiYla":"Storängen","suomiAla":"Espoonlahden oppilasalue","suomiYla":"Espoonlahden oppilasalue"}},{"coordinates":{"lon":24.72670614292175,"lat":60.16823883269403},"name":"Kuitinmäen koulu","type":"suomiAla","districts":{"ruotsiAla":"Finno","ruotsiYla":"Finno","suomiAla":"Matinkylän-Olarin oppilasalue","suomiYla":"Matinkylän-Olarin oppilasalue"}},{"coordinates":{"lon":24.72670614292175,"lat":60.16823883269403},"name":"Kuitinmäen koulu","type":"suomiYla","districts":{"ruotsiAla":"Finno","ruotsiYla":"Finno","suomiAla":"Matinkylän-Olarin oppilasalue","suomiYla":"Matinkylän-Olarin oppilasalue"}},{"coordinates":{"lon":24.735320748755072,"lat":60.153870518239934},"name":"Tiistilän koulu","type":"suomiAla","districts":{"ruotsiAla":"Mattliden","ruotsiYla":"Mattliden","suomiAla":"Matinkylän-Olarin oppilasalue","suomiYla":"Matinkylän-Olarin oppilasalue"}},{"coordinates":{"lon":24.735320748755072,"lat":60.153870518239934},"name":"Tiistilän koulu","type":"suomiYla","districts":{"ruotsiAla":"Mattliden","ruotsiYla":"Mattliden","suomiAla":"Matinkylän-Olarin oppilasalue","suomiYla":"Matinkylän-Olarin oppilasalue"}},{"coordinates":{"lon":24.85297471913501,"lat":60.24925359667081},"name":"Apollon yhteiskoulu","type":"suomiAla","districts":{"ruotsiAla":"Västra distrikt, Hoplaxskolan, Kårböle-enheten 1-5 2020-2021","ruotsiYla":"Hoplaxskolan, Munksnäs-enheten 6-9 2020-2021","suomiAla":"Pihkapuiston ala-asteen koulu 2020-2021","suomiYla":"Apollon Yhteiskoulu 2020-2021"}},{"coordinates":{"lon":24.85297471913501,"lat":60.24925359667081},"name":"Apollon yhteiskoulu","type":"suomiYla","districts":{"ruotsiAla":"Västra distrikt, Hoplaxskolan, Kårböle-enheten 1-5 2020-2021","ruotsiYla":"Hoplaxskolan, Munksnäs-enheten 6-9 2020-2021","suomiAla":"Pihkapuiston ala-asteen koulu 2020-2021","suomiYla":"Apollon Yhteiskoulu 2020-2021"}},{"coordinates":{"lon":24.889270033308808,"lat":60.212048400086125},"name":"Helsingin Suomalainen Yhteisk.","type":"suomiAla","districts":{"ruotsiAla":"Västra distrikt, Hoplaxskolan, Kårböle-enheten 1-5 2020-2021","ruotsiYla":"Hoplaxskolan, Munksnäs-enheten 6-9 2020-2021","suomiAla":"Haagan peruskoulu 2020-2021","suomiYla":"Haagan peruskoulu 2020-2021"}},{"coordinates":{"lon":24.889270033308808,"lat":60.212048400086125},"name":"Helsingin Suomalainen Yhteisk.","type":"suomiYla","districts":{"ruotsiAla":"Västra distrikt, Hoplaxskolan, Kårböle-enheten 1-5 2020-2021","ruotsiYla":"Hoplaxskolan, Munksnäs-enheten 6-9 2020-2021","suomiAla":"Haagan peruskoulu 2020-2021","suomiYla":"Haagan peruskoulu 2020-2021"}},{"coordinates":{"lon":24.999590479113916,"lat":60.239895219596534},"name":"Helsingin Uusi yhteiskoulu","type":"suomiAla","districts":{"ruotsiAla":"Staffansby lågstadieskola 2020-2021","ruotsiYla":"Åshöjdens grundskola 2020-2021","suomiAla":"Pihlajamäen ala-asteen koulu 2020-2021","suomiYla":"Helsingin Uusi Yhteiskoulu 2020-2021"}},{"coordinates":{"lon":24.999590479113916,"lat":60.239895219596534},"name":"Helsingin Uusi yhteiskoulu","type":"suomiYla","districts":{"ruotsiAla":"Staffansby lågstadieskola 2020-2021","ruotsiYla":"Åshöjdens grundskola 2020-2021","suomiAla":"Pihlajamäen ala-asteen koulu 2020-2021","suomiYla":"Helsingin Uusi Yhteiskoulu 2020-2021"}},{"coordinates":{"lon":25.089736530646242,"lat":60.230831999746336},"name":"Helsingin yhteislyseo","type":"suomiAla","districts":{"ruotsiAla":"Botby grundskola 2020-2021","ruotsiYla":"Botby grundskola 2020-2021","suomiAla":"Kontulan ala-asteen koulu 2020-2021","suomiYla":"Helsingin yhteislyseo 2020-2021"}},{"coordinates":{"lon":25.089736530646242,"lat":60.230831999746336},"name":"Helsingin yhteislyseo","type":"suomiYla","districts":{"ruotsiAla":"Botby grundskola 2020-2021","ruotsiYla":"Botby grundskola 2020-2021","suomiAla":"Kontulan ala-asteen koulu 2020-2021","suomiYla":"Helsingin yhteislyseo 2020-2021"}},{"coordinates":{"lon":25.036075724053866,"lat":60.20648967219046},"name":"Herttoniemen yhteiskoulu","type":"suomiAla","districts":{"ruotsiAla":"Brändö lågstadieskola 2020-2021","ruotsiYla":"Botby grundskola 2020-2021","suomiAla":"Hertsikan ala-asteen koulu 2020-2021","suomiYla":"Herttoniemen yhteiskoulu 2020-2021"}},{"coordinates":{"lon":25.036075724053866,"lat":60.20648967219046},"name":"Herttoniemen yhteiskoulu","type":"suomiYla","districts":{"ruotsiAla":"Brändö lågstadieskola 2020-2021","ruotsiYla":"Botby grundskola 2020-2021","suomiAla":"Hertsikan ala-asteen koulu 2020-2021","suomiYla":"Herttoniemen yhteiskoulu 2020-2021"}},{"coordinates":{"lon":25.003400182024077,"lat":60.187086126738755},"name":"Kulosaaren yhteiskoulu","type":"suomiAla","districts":{"ruotsiAla":"Brändö lågstadieskola 2020-2021","ruotsiYla":"Botby grundskola 2020-2021","suomiAla":"Kulosaaren ala-asteen koulu 2020-2021","suomiYla":"Kulosaaren yhteiskoulu 2020-2021"}},{"coordinates":{"lon":25.003400182024077,"lat":60.187086126738755},"name":"Kulosaaren yhteiskoulu","type":"suomiYla","districts":{"ruotsiAla":"Brändö lågstadieskola 2020-2021","ruotsiYla":"Botby grundskola 2020-2021","suomiAla":"Kulosaaren ala-asteen koulu 2020-2021","suomiYla":"Kulosaaren yhteiskoulu 2020-2021"}},{"coordinates":{"lon":24.862673402990833,"lat":60.15864556592057},"name":"Lauttasaaren yhteiskoulu","type":"suomiAla","districts":{"ruotsiAla":"Drumsö lågstadieskola 2020-2021","ruotsiYla":"Grundskolan Norsen, 5-9 2020-2021","suomiAla":"Lauttasaaren ala-asteen koulu, Lauttasaarentien toimipiste 2020-2021","suomiYla":"Lauttasaaren yhteiskoulu 2020-2021"}},{"coordinates":{"lon":24.862673402990833,"lat":60.15864556592057},